node,lat,lon,geometry,city,state
692,37.86048,112.58682,POINT (112.58682 37.86048),Taiyuan City,Shanxi
1351,37.6971899999999,112.731179999999,POINT (112.731179999999 37.6971899999999),Jinzhong City,Shanxi
698,37.42136,112.57032,POINT (112.57032 37.42136),Jinzhong City,Shanxi
944,37.2066099999999,112.16847,POINT (112.16847 37.2066099999999),Jinzhong City,Shanxi
232,37.01847,111.91906,POINT (111.91906 37.01847),Jinzhong City,Shanxi
1639,36.86171,111.771019999999,POINT (111.771019999999 36.86171),Jinzhong City,Shanxi
2335,36.58583,111.71973,POINT (111.71973 36.58583),Huozhou,Shanxi
1512,36.26214,111.67162,POINT (111.67162 36.26214),,Shanxi
127,36.0868299999999,111.53682,POINT (111.53682 36.0868299999999),Yaodu,Shanxi
259,35.6131299999999,111.3585,POINT (111.3585 35.6131299999999),Houma City,Shanxi
1835,35.6126999999999,110.99518,POINT (110.99518 35.6126999999999),,Shanxi
1480,35.58776,110.72605,POINT (110.72605 35.58776),Hejin,Shanxi
2362,35.48393,110.44188,POINT (110.44188 35.48393),Weinan City,Shaanxi
503,35.19518,110.09119,POINT (110.09119 35.19518),Heyang County,Shaanxi
1009,34.77167,109.40295,POINT (109.40295 34.77167),Weinan City,Shaanxi
2058,34.27727,108.96283,POINT (108.96283 34.27727),Xincheng District,Shaanxi
802,34.37297,107.15321,POINT (107.15321 34.37297),Baoji City,Shaanxi
681,34.56586,105.8986,POINT (105.8986 34.56586),Maiji,Gansu
1704,34.7629299999999,105.33231,POINT (105.33231 34.7629299999999),,Gansu
2314,34.9523799999999,104.70544,POINT (104.70544 34.9523799999999),,Gansu
314,36.03493,103.8512,POINT (103.8512 36.03493),Lanzhou,Gansu
783,35.5921499999999,104.62502,POINT (104.62502 35.5921499999999),Dingxi,Gansu
542,34.3438799999999,108.73483,POINT (108.73483 34.3438799999999),Weicheng District,Shaanxi
1148,35.61045,111.21098,POINT (111.21098 35.61045),Xinjiang County,Shanxi
683,39.134968,117.209464999999,POINT (117.209464999999 39.134968),Hedong District,Tianjin
983,39.5149169999999,116.705679,POINT (116.705679 39.5149169999999),Langfang City,Hebei
390,39.896042,116.321152,POINT (116.321152 39.896042),Haidian District,
804,40.59803,115.05712,POINT (115.05712 40.59803),Xuanhua District,Hebei
1005,40.75361,114.88509,POINT (114.88509 40.75361),Zhangjiakou City,Hebei
1309,40.67114,114.41604,POINT (114.41604 40.67114),Zhangjiakou City,Hebei
627,40.1201099999999,113.30311,POINT (113.30311 40.1201099999999),Datong City,Shanxi
123,40.43518,113.16337,POINT (113.16337 40.43518),Ulanqab City,Inner Mongolia
2330,41.031426,113.099335999999,POINT (113.099335999999 41.031426),Jining,Inner Mongolia
529,40.8503419999999,111.765567,POINT (111.765567 40.8503419999999),Hohhot City,Inner Mongolia
530,40.8309,111.665809999999,POINT (111.665809999999 40.8309),Hohhot City,Inner Mongolia
826,40.70539,111.12615,POINT (111.12615 40.70539),Hohhot City,Inner Mongolia
2007,40.56459,110.53165,POINT (110.53165 40.56459),Baotou City,Inner Mongolia
381,40.5703419999999,110.024867,POINT (110.024867 40.5703419999999),Baotou City,Inner Mongolia
382,40.607224,109.838194,POINT (109.838194 40.607224),Baotou City,Inner Mongolia
158,40.73662,108.65224,POINT (108.65224 40.73662),Urad Front Banner,Inner Mongolia
202,40.911614,108.04987,POINT (108.04987 40.911614),,Inner Mongolia
131,40.7437899999999,107.42914,POINT (107.42914 40.7437899999999),Bayannur,Inner Mongolia
903,40.33308,107.02185,POINT (107.02185 40.33308),Dengkou,Inner Mongolia
160,39.67007,106.805229999999,POINT (106.805229999999 39.67007),,Inner Mongolia
161,39.45517,106.738530999999,POINT (106.738530999999 39.45517),三道坎街道办,Inner Mongolia
2140,34.4675599999999,118.58837,POINT (118.58837 34.4675599999999),Donghai County,Jiangsu
92,34.54216,118.771469999999,POINT (118.771469999999 34.54216),Donghai County,Jiangsu
1146,34.38078,118.34881,POINT (118.34881 34.38078),Xinyi City,Jiangsu
2168,34.3170599999999,117.95853,POINT (117.95853 34.3170599999999),Pizhou,Jiangsu
1030,34.268639,117.203785999999,POINT (117.203785999999 34.268639),Yunlong District,Jiangsu
1786,34.4167599999999,116.33026,POINT (116.33026 34.4167599999999),Suzhou City,Anhui
2030,34.39737,115.86519,POINT (115.86519 34.39737),Shangqiu City,Henan
561,34.4434499999999,115.65679,POINT (115.65679 34.4434499999999),Shangqiu City,Henan
752,34.45454,115.30516,POINT (115.30516 34.45454),Ningling County,Henan
1384,34.645,115.14027,POINT (115.14027 34.645),Minquan County,Henan
317,34.81476,114.81952,POINT (114.81952 34.81476),Lankao,Henan
997,34.7713299999999,114.35328,POINT (114.35328 34.7713299999999),Yuwangtai District,Henan
2175,34.7466099999999,113.659409999999,POINT (113.659409999999 34.7466099999999),Zhengzhou,Henan
1508,34.68551,112.43615,POINT (112.43615 34.68551),Xigong District,Henan
1580,34.4844799999999,109.493759999999,POINT (109.493759999999 34.4844799999999),Weinan City,Shaanxi
2020,34.3210199999999,107.59804,POINT (107.59804 34.3210199999999),Baoji City,Shaanxi
1254,34.268239,108.078768999999,POINT (108.078768999999 34.268239),Xianyang City,Shaanxi
1625,34.53567,110.24766,POINT (110.24766 34.53567),Tongguan County,Shaanxi
1633,34.50979,110.89815,POINT (110.89815 34.50979),Lingbao City,Henan
47,34.6872249999999,111.080848,POINT (111.080848 34.6872249999999),,Henan
1573,34.7533099999999,111.78598,POINT (111.78598 34.7533099999999),Mianchi,Henan
2441,34.3597699999999,116.69761,POINT (116.69761 34.3597699999999),Xiao County,Anhui
1256,30.2438299999999,120.182419999999,POINT (120.182419999999 30.2438299999999),Shangcheng District,Zhejiang
1046,30.5352539999999,119.958170999999,POINT (119.958170999999 30.5352539999999),Huzhou,Zhejiang
2245,30.990589,119.903996,POINT (119.903996 30.990589),Changxing County,Zhejiang
957,30.91206,119.409319999999,POINT (119.409319999999 30.91206),Xuancheng City,Anhui
806,30.94706,118.774069999999,POINT (118.774069999999 30.94706),Xuanzhou District,Anhui
1942,31.3472,118.39008,POINT (118.39008 31.3472),Jinghu District,Anhui
891,31.61431,117.89052,POINT (117.89052 31.61431),Chaohu City,Anhui
502,31.88566,117.31735,POINT (117.31735 31.88566),Yaohai District,Anhui
1554,32.631607,117.017482,POINT (117.017482 32.631607),Tianjia'an District,Anhui
2282,32.9143199999999,115.86843,POINT (115.86843 32.9143199999999),Yingdong District,Anhui
229,33.84763,115.79787,POINT (115.79787 33.84763),Bozhou City,Anhui
413,34.55512,110.140559999999,POINT (110.140559999999 34.55512),Huayin City,Shaanxi
46,34.76066,111.233549999999,POINT (111.233549999999 34.76066),Sanmenxia,Henan
148,34.7211799999999,111.912499999999,POINT (111.912499999999 34.7211799999999),Yima City,Henan
898,34.76024,112.98152,POINT (112.98152 34.76024),Zhengzhou,Henan
560,34.40825,115.704038999999,POINT (115.704038999999 34.40825),Shangqiu City,Henan
269,32.12876,114.08216,POINT (114.08216 32.12876),,Henan
1899,32.16581,114.55031,POINT (114.55031 32.16581),Loushan,Henan
1058,32.34282,114.74024,POINT (114.74024 32.34282),Xi,Henan
1620,32.11177,115.10272,POINT (115.10272 32.11177),,Henan
1122,31.6438899999999,114.87929,POINT (114.87929 31.6438899999999),Xin County,Henan
2433,31.1464099999999,114.963179999999,POINT (114.963179999999 31.1464099999999),Huanggang,Hubei
2445,30.58592,115.00506,POINT (115.00506 30.58592),Huangzhou District,Hubei
1521,30.43287,115.24239,POINT (115.24239 30.43287),Huanggang,Hubei
2023,30.24219,115.4462,POINT (115.4462 30.24219),Huanggang,Hubei
1377,29.96921,115.63827,POINT (115.63827 29.96921),Wuxue,Hubei
177,29.7105989999999,116.012415,POINT (116.012415 29.7105989999999),,Jiangxi
514,28.44295,115.96129,POINT (115.96129 28.44295),,Jiangxi
2105,25.81921,114.964429999999,POINT (114.964429999999 25.81921),Zhanggong District,Jiangxi
2477,24.1123699999999,115.23746,POINT (115.23746 24.1123699999999),Heyuan,Guangdong Province
1481,23.75944,114.683229999999,POINT (114.683229999999 23.75944),Heyuan,Guangdong Province
1066,23.1517799999999,114.41646,POINT (114.41646 23.1517799999999),Huizhou,Guangdong Province
99,22.965333,114.039053,POINT (114.039053 22.965333),Dongguan,Guangdong Province
1561,22.52823,113.90842,POINT (113.90842 22.52823),Nanshan District,Guangdong Province
504,27.10535,115.02088,POINT (115.02088 27.10535),Ji'an City,Jiangxi
2281,41.9873699999999,121.63728,POINT (121.63728 41.9873699999999),,Liaoning
1569,41.77687,121.42026,POINT (121.42026 41.77687),,Liaoning
147,41.53311,121.23915,POINT (121.23915 41.53311),Yi County,Liaoning
11,41.3392399999999,121.25677,POINT (121.25677 41.3392399999999),Yi County,Liaoning
2234,41.124115,121.1392,POINT (121.1392 41.124115),,Liaoning
2012,40.7545199999999,120.86776,POINT (120.86776 40.7545199999999),Huludao City,Liaoning
328,40.62366,120.70228,POINT (120.70228 40.62366),Huludao City,Liaoning
1885,40.32204,120.35334,POINT (120.35334 40.32204),Suizhong,Liaoning
867,40.0004199999999,119.76746,POINT (119.76746 40.0004199999999),Qinhuangdao City,Hebei
1833,39.96524,119.592339999999,POINT (119.592339999999 39.96524),Qinhuangdao City,Hebei
1603,39.74058,118.703509999999,POINT (118.703509999999 39.74058),Tangshan City,Hebei
558,39.623161,118.121626,POINT (118.121626 39.623161),Lubei District,Hebei
2357,38.93276,116.93015,POINT (116.93015 38.93276),Jinghai District,Tianjin
1474,38.3092899999999,116.87793,POINT (116.87793 38.3092899999999),Cangzhou,Hebei
1040,37.4493799999999,116.28873,POINT (116.28873 37.4493799999999),Dezhou City,Shandong
1517,36.67069,116.99117,POINT (116.99117 36.67069),Tianqiao District,Shandong
1498,36.18723,117.11078,POINT (117.11078 36.18723),Taishan District,Shandong
288,35.55579,116.8409,POINT (116.8409 35.55579),Yanzhou City,Shandong
1599,35.08061,117.1538,POINT (117.1538 35.08061),Tengzhou City,Shandong
812,33.6390499999999,116.99454,POINT (116.99454 33.6390499999999),Yongqiao District,Anhui
2032,32.94408,117.37781,POINT (117.37781 32.94408),Longzihu District,Anhui
1595,32.307397,118.326668,POINT (118.326668 32.307397),Nanqiao District,Anhui
420,32.0863099999999,118.79692,POINT (118.79692 32.0863099999999),Xuanwu District,Jiangsu
141,32.00191,119.59208,POINT (119.59208 32.00191),Danyang City,Jiangsu
913,31.78506,119.97178,POINT (119.97178 31.78506),Tianning District,Jiangsu
1163,31.5882499999999,120.306659999999,POINT (120.306659999999 31.5882499999999),Xinwu District,Jiangsu
1963,31.3288,120.610969999999,POINT (120.610969999999 31.3288),Gusu District,Jiangsu
57,31.24982,121.45565,POINT (121.45565 31.24982),Jing'an District,
2240,32.19852,119.43298,POINT (119.43298 32.19852),Runzhou District,Jiangsu
1286,34.793522,117.255366,POINT (117.255366 34.793522),Xuecheng District,Shandong
1827,36.9239999999999,116.63374,POINT (116.63374 36.9239999999999),Yucheng City,Shandong
924,37.1704,116.43973,POINT (116.43973 37.1704),Pingyuan County,Shandong
523,37.6273399999999,116.38612,POINT (116.38612 37.6273399999999),Wuqiao County,Hebei
79,37.89249,116.53079,POINT (116.53079 37.89249),Cangzhou,Hebei
1488,38.0614899999999,116.586879999999,POINT (116.586879999999 38.0614899999999),Botou City,Hebei
1250,39.14237,117.00227,POINT (117.00227 39.14237),Xiqing District,Tianjin
1562,38.01144,115.61368,POINT (115.61368 38.01144),Hengshui City,Hebei
2038,37.74448,115.69113,POINT (115.69113 37.74448),Hengshui City,Hebei
1567,37.0636999999999,115.68718,POINT (115.68718 37.0636999999999),Qinghe County,Hebei
1923,36.4567699999999,115.94374,POINT (115.94374 36.4567699999999),Dongchangfu District,Shandong
1999,35.2308999999999,115.5066,POINT (115.5066 35.2308999999999),Mudan District,Shandong
1213,34.82553,115.54214,POINT (115.54214 34.82553),Cao County,Shandong
786,35.0647499999999,115.59583,POINT (115.59583 35.0647499999999),Dingtao,Shandong
2185,35.4237299999999,115.67191,POINT (115.67191 35.4237299999999),Mudan District,Shandong
2176,35.6013299999999,115.90172,POINT (115.90172 35.6013299999999),Heze City,Shandong
1336,35.81904,115.93772,POINT (115.93772 35.81904),Liangshan County,Shandong
493,35.96388,115.86344,POINT (115.86344 35.96388),Taiqian County,Henan
2293,36.1014899999999,115.80964,POINT (115.80964 36.1014899999999),Yanggu County,Shandong
134,36.8421099999999,115.73799,POINT (115.73799 36.8421099999999),Linqing City,Shandong
240,38.69406,116.14507,POINT (116.14507 38.69406),Renqiu City,Hebei
2339,39.12281,116.37544,POINT (116.37544 39.12281),Langfang City,Hebei
2152,43.60513,122.27109,POINT (122.27109 43.60513),Tongliao City,Inner Mongolia
253,43.4403,121.96862,POINT (121.96862 43.4403),Tongliao City,Inner Mongolia
90,43.3897899999999,121.64224,POINT (121.64224 43.3897899999999),Tongliao City,Inner Mongolia
291,43.20205,121.06355,POINT (121.06355 43.20205),Tongliao City,Inner Mongolia
705,42.8412799999999,120.67717,POINT (120.67717 42.8412799999999),Tongliao City,Inner Mongolia
1903,42.6392969999999,120.0013,POINT (120.0013 42.6392969999999),,Inner Mongolia
582,42.4834699999999,119.640333,POINT (119.640333 42.4834699999999),,Inner Mongolia
2108,42.25683,118.9597,POINT (118.9597 42.25683),站前街道办,Inner Mongolia
1874,42.2446899999999,118.635,POINT (118.635 42.2446899999999),,Inner Mongolia
1875,41.9293499999999,118.13365,POINT (118.13365 41.9293499999999),Chengde City,Hebei
578,41.80147,117.82762,POINT (117.82762 41.80147),Chengde City,Hebei
2322,41.32865,117.751369999999,POINT (117.751369999999 41.32865),Chengde City,Hebei
1054,40.40903,116.693,POINT (116.693 40.40903),Huairou District,
1178,40.231439,116.233104999999,POINT (116.233104999999 40.231439),Changping District,
387,39.9427889999999,116.353817,POINT (116.353817 39.9427889999999),Xicheng District,
426,40.23964,116.12974,POINT (116.12974 40.23964),Changping District,
980,40.3798499999999,115.89833,POINT (115.89833 40.3798499999999),Yanqing District,
1462,40.39706,115.515829999999,POINT (115.515829999999 40.39706),Zhangjiakou City,Hebei
686,40.4520899999999,114.06516,POINT (114.06516 40.4520899999999),Tianzhen County,Shanxi
2295,40.36565,113.73975,POINT (113.73975 40.36565),Datong City,Shanxi
415,40.928753,112.619905,POINT (112.619905 40.928753),Zhuozi County,Inner Mongolia
1604,40.9231699999999,117.316199999999,POINT (117.316199999999 40.9231699999999),Luanping County,Hebei
389,39.903706,116.427322,POINT (116.427322 39.903706),Dongcheng District,
1248,39.35428,117.06468,POINT (117.06468 39.35428),Wuqing District,Tianjin
684,39.156879,117.163315,POINT (117.163315 39.156879),Hongqiao District,Tianjin
2340,38.58348,116.80318,POINT (116.80318 38.58348),Qing County,Hebei
1796,35.90158,117.10632,POINT (117.10632 35.90158),Tai'an City,Shandong
2172,35.40095,116.958299999999,POINT (116.958299999999 35.40095),Zoucheng City,Shandong
1171,31.3661099999999,120.95795,POINT (120.95795 31.3661099999999),Kunshan,Jiangsu
1181,32.7698699999999,117.9888,POINT (117.9888 32.7698699999999),Mingguang,Anhui
2137,35.0265399999999,110.99048,POINT (110.99048 35.0265399999999),Yuncheng,Shanxi
1407,34.87039,110.45385,POINT (110.45385 34.87039),,Shanxi
1714,33.33113,106.14588,POINT (106.14588 33.33113),Lueyang County,Shaanxi
2284,32.9675999999999,106.03746,POINT (106.03746 32.9675999999999),,Shaanxi
1189,32.384309,105.641771,POINT (105.641771 32.384309),,Sichuan
1431,31.7818499999999,104.76979,POINT (104.76979 31.7818499999999),Mianyang City,Sichuan
1893,31.4596899999999,104.71724,POINT (104.71724 31.4596899999999),Mianyang City,Sichuan
1047,31.16598,104.39006,POINT (104.39006 31.16598),Jingyang District,Sichuan
1070,30.6968299999999,104.07332,POINT (104.07332 30.6968299999999),Jinniu District,Sichuan
1805,37.35775,112.33507,POINT (112.33507 37.35775),Jinzhong City,Shanxi
2372,38.2374599999999,115.71698,POINT (115.71698 38.2374599999999),Raoyang County,Hebei
1287,37.50475,115.73933,POINT (115.73933 37.50475),Hengshui City,Hebei
1925,38.4142999999999,115.85165,POINT (115.85165 38.4142999999999),Suning County,Hebei
1943,39.3293,117.84542,POINT (117.84542 39.3293),Lunan District,Hebei
666,41.61374,122.14757,POINT (122.14757 41.61374),,Liaoning
1455,41.81767,123.438574,POINT (123.438574 41.81767),Shenhe District,Liaoning
2218,42.2934899999999,123.83668,POINT (123.83668 42.2934899999999),Yinzhou District,Liaoning
995,42.54645,124.03206,POINT (124.03206 42.54645),Kaiyuan,Liaoning
1176,42.7787,124.11761,POINT (124.11761 42.7787),Changtu,Liaoning
300,43.5090399999999,124.81193,POINT (124.81193 43.5090399999999),Changchun City,Jilin
2259,43.905653,125.321586999999,POINT (125.321586999999 43.905653),Changchun City,Jilin
1041,44.53325,125.71714,POINT (125.71714 44.53325),Dehui City,Jilin
548,45.761536,126.632973,POINT (126.632973 45.761536),Harbin,Heilongjiang
528,45.99833,126.647499999999,POINT (126.647499999999 45.99833),Harbin,Heilongjiang
339,46.44393,127.12062,POINT (127.12062 46.44393),Harbin,Heilongjiang
1886,46.64459,127.0155,POINT (127.0155 46.64459),,Heilongjiang
963,46.88768,127.5034,POINT (127.5034 46.88768),Qingan,Heilongjiang
2216,46.9744299999999,128.05371,POINT (128.05371 46.9744299999999),铁力镇,Heilongjiang
1220,46.95848,128.878379999999,POINT (128.878379999999 46.95848),,Heilongjiang
434,47.13342,129.28038,POINT (129.28038 47.13342),,Heilongjiang
1436,46.74728,129.926179999999,POINT (129.926179999999 46.74728),Tangyuan,Heilongjiang
257,46.8042999999999,130.38457,POINT (130.38457 46.8042999999999),Jiamusi,Heilongjiang
2373,46.6523699999999,129.75819,POINT (129.75819 46.6523699999999),,Heilongjiang
1522,46.7283199999999,129.63879,POINT (129.63879 46.7283199999999),,Heilongjiang
580,43.16823,124.37313,POINT (124.37313 43.16823),Siping City,Jilin
1473,41.36191,121.77494,POINT (121.77494 41.36191),Beizhen City,Liaoning
618,34.2392899999999,116.12969,POINT (116.12969 34.2392899999999),Xiayi County,Henan
2447,39.72086,116.330879999999,POINT (116.330879999999 39.72086),Daxing District,
665,37.31835,115.73616,POINT (115.73616 37.31835),Hengshui City,Hebei
1352,37.0517899999999,112.96924,POINT (112.96924 37.0517899999999),Jinzhong City,Shanxi
1365,36.85598,112.85395,POINT (112.85395 36.85598),Changzhi City,Shanxi
1446,36.7560799999999,112.69907,POINT (112.69907 36.7560799999999),Changzhi City,Shanxi
2267,36.3086249999999,113.125077,POINT (113.125077 36.3086249999999),Changzhi City,Shanxi
2268,36.18865,113.07044,POINT (113.07044 36.18865),Changzhi City,Shanxi
2396,35.8009199999999,112.9184,POINT (112.9184 35.8009199999999),Gaoping City,Shanxi
1195,35.47583,112.87313,POINT (112.87313 35.47583),Jincheng City,Shanxi
1218,35.2109999999999,113.05562,POINT (113.05562 35.2109999999999),Bo'ai County,Henan
1646,35.22245,113.23499,POINT (113.23499 35.22245),,Henan
1115,35.3057799999999,113.859669999999,POINT (113.859669999999 35.3057799999999),,Henan
1551,36.7890099999999,118.05687,POINT (118.05687 36.7890099999999),Zhangdian District,Shandong
1617,36.69727,119.098389999999,POINT (119.098389999999 36.69727),Weicheng District,Shandong
2343,36.06347,120.31361,POINT (120.31361 36.06347),Qingdao City,Shandong
1062,39.0639299999999,106.56441,POINT (106.56441 39.0639299999999),Shizuishan City,Ningxia
1766,38.9168,106.42183,POINT (106.42183 38.9168),Shizuishan City,Ningxia
2226,38.49193,106.17449,POINT (106.17449 38.49193),Jinfeng District,Ningxia
2350,37.91864,105.93183,POINT (105.93183 37.91864),,Ningxia
115,37.55554,105.66741,POINT (105.66741 37.55554),,Ningxia
109,37.52201,105.190029999999,POINT (105.190029999999 37.52201),Zhongwei,Ningxia
1208,37.19445,104.05571,POINT (104.05571 37.19445),Jingtai,Gansu
1743,36.5496979999999,104.099194,POINT (104.099194 36.5496979999999),Baiyin District,Gansu
355,33.9122699999999,106.52203,POINT (106.52203 33.9122699999999),Baoji City,Shaanxi
1048,33.7688399999999,106.08785,POINT (106.08785 33.7688399999999),,Gansu
948,32.416769,105.79725,POINT (105.79725 32.416769),Xiaxi,Sichuan
694,44.3995299999999,123.18477,POINT (123.18477 44.3995299999999),Songyuan City,Jilin
962,44.613308,123.368762,POINT (123.368762 44.613308),,Jilin
895,44.716002,123.480551,POINT (123.480551 44.716002),,Jilin
892,44.8572199999999,123.62609,POINT (123.62609 44.8572199999999),Songyuan City,Jilin
777,45.00484,123.802499999999,POINT (123.802499999999 45.00484),,Jilin
183,45.0993399999999,123.879499999999,POINT (123.879499999999 45.0993399999999),Songyuan City,Jilin
1528,45.2711499999999,124.04492,POINT (124.04492 45.2711499999999),,Jilin
993,45.4588839999999,124.18749,POINT (124.18749 45.4588839999999),Da'an,Jilin
631,45.5168669999999,124.239237,POINT (124.239237 45.5168669999999),,Jilin
1150,45.7107699999999,124.41339,POINT (124.41339 45.7107699999999),,Heilongjiang
378,45.87156,124.5419,POINT (124.5419 45.87156),,Heilongjiang
700,45.9391699999999,124.586699999999,POINT (124.586699999999 45.9391699999999),,Heilongjiang
1837,45.99461,124.57087,POINT (124.57087 45.99461),,Heilongjiang
1120,46.13118,124.61933,POINT (124.61933 46.13118),,Heilongjiang
1279,46.34465,124.764129999999,POINT (124.764129999999 46.34465),,Heilongjiang
2227,46.49119,124.85422,POINT (124.85422 46.49119),Honggang District,Heilongjiang
637,46.656854,124.886995,POINT (124.886995 46.656854),,Heilongjiang
2469,47.33932,123.99459,POINT (123.99459 47.33932),,Heilongjiang
151,46.07101,122.06332,POINT (122.06332 46.07101),Ulanhot,Inner Mongolia
925,45.71895,122.66007,POINT (122.66007 45.71895),Ulanhot,Inner Mongolia
1718,45.61722,122.86238,POINT (122.86238 45.61722),,Jilin
1514,45.3403899999999,122.8091,POINT (122.8091 45.3403899999999),,Jilin
998,44.8053999999999,123.07693,POINT (123.07693 44.8053999999999),Tongyu,Jilin
1102,44.24365,123.023889999999,POINT (123.023889999999 44.24365),Tongliao City,Inner Mongolia
803,44.03097,122.74011,POINT (122.74011 44.03097),Tongliao City,Inner Mongolia
2398,43.87051,122.55131,POINT (122.55131 43.87051),Tongliao City,Inner Mongolia
1000,43.63297,121.28466,POINT (121.28466 43.63297),Tongliao City,Inner Mongolia
1294,43.85772,120.06935,POINT (120.06935 43.85772),Ar Horqin Banner,Inner Mongolia
1275,43.93441,119.413,POINT (119.413 43.93441),林东镇,Inner Mongolia
644,43.52537,118.63958,POINT (118.63958 43.52537),,Inner Mongolia
1281,43.5932699999999,118.08143,POINT (118.08143 43.5932699999999),林西镇,Inner Mongolia
1880,43.2731399999999,117.53743,POINT (117.53743 43.2731399999999),Hexigten Banner,Inner Mongolia
1328,42.67611,115.93884,POINT (115.93884 42.67611),,Inner Mongolia
1363,42.2872199999999,115.03077,POINT (115.03077 42.2872199999999),Zhengxiangbai Banner,Inner Mongolia
386,41.8969,114.039,POINT (114.039 41.8969),Huade County,Inner Mongolia
565,41.5801799999999,113.5577,POINT (113.5577 41.5801799999999),Ulanqab City,Inner Mongolia
2010,45.894364,122.308187,POINT (122.308187 45.894364),Ulanhot,Inner Mongolia
1006,29.10464,110.48703,POINT (110.48703 29.10464),Yongding District,Hunan
509,28.32456,109.734889999999,POINT (109.734889999999 28.32456),,Hunan
2439,27.85539,109.80305,POINT (109.80305 27.85539),,Hunan
1053,27.55724,109.96733,POINT (109.96733 27.55724),Chengzhong Subdistrict,Hunan
247,26.8822699999999,109.73287,POINT (109.73287 26.8822699999999),Huitong,Hunan
2353,26.56644,109.688199999999,POINT (109.688199999999 26.56644),Jingzhou,Hunan
2154,26.31587,109.63232,POINT (109.63232 26.31587),,Hunan
1656,26.13111,109.62339,POINT (109.62339 26.13111),,Hunan
36,25.834209,109.572989,POINT (109.572989 25.834209),Sanjiang Dong Autonomous County,Guangxi
2034,25.20586,109.40741,POINT (109.40741 25.20586),Rong'an,Guangxi
2035,25.07128,109.24036,POINT (109.24036 25.07128),Rongshui,Guangxi
1300,24.3071799999999,109.38764,POINT (109.38764 24.3071799999999),,Guangxi
1243,23.73054,109.24121,POINT (109.24121 23.73054),Laibin,Guangxi
2459,23.1951299999999,109.13292,POINT (109.13292 23.1951299999999),Nanning,Guangxi
431,22.8265999999999,108.31522,POINT (108.31522 22.8265999999999),Nanning,Guangxi
589,42.9655899999999,129.841379999999,POINT (129.841379999999 42.9655899999999),,Jilin
985,42.88709,129.49686,POINT (129.49686 42.88709),Yanji,Jilin
757,43.11618,128.9093,POINT (128.9093 43.11618),Antu County,Jilin
1104,43.38011,128.24583,POINT (128.24583 43.38011),Dunhua City,Jilin
2033,43.7255699999999,127.35144,POINT (127.35144 43.7255699999999),Jiaohe,Jilin
1937,44.4078599999999,126.95437,POINT (126.95437 44.4078599999999),,Jilin
866,44.69684,127.21093,POINT (127.21093 44.69684),Harbin,Heilongjiang
208,44.92212,127.14369,POINT (127.14369 44.92212),Harbin,Heilongjiang
1092,45.2301399999999,126.89613,POINT (126.89613 45.2301399999999),Harbin,Heilongjiang
933,45.58587,126.67562,POINT (126.67562 45.58587),Harbin,Heilongjiang
734,45.701464,126.689549,POINT (126.689549 45.701464),Harbin,Heilongjiang
2374,45.7212699999999,126.679509999999,POINT (126.679509999999 45.7212699999999),Harbin,Heilongjiang
1676,45.7304099999999,126.65043,POINT (126.65043 45.7304099999999),Harbin,Heilongjiang
671,38.9222899999999,121.633129999999,POINT (121.633129999999 38.9222899999999),Dalian,Liaoning
2207,39.08809,121.72751,POINT (121.72751 39.08809),,Liaoning
1201,39.4014799999999,121.96025,POINT (121.96025 39.4014799999999),Pulandian District,Liaoning
1694,39.6256899999999,122.0078,POINT (122.0078 39.6256899999999),Wafangdian City,Liaoning
1649,40.1813199999999,122.1478,POINT (122.1478 40.1813199999999),Yingkou City,Liaoning
1757,40.4193,122.33372,POINT (122.33372 40.4193),Yingkou City,Liaoning
658,40.6516749999999,122.512275,POINT (122.512275 40.6516749999999),Dashiqiao City,Liaoning
2359,41.1126,122.985969999999,POINT (122.985969999999 41.1126),,Liaoning
1456,41.792594,123.399083,POINT (123.399083 41.792594),Shenyang City,Liaoning
1082,44.9874,126.025319999999,POINT (126.025319999999 44.9874),Songyuan City,Jilin
856,45.20861,127.96231,POINT (127.96231 45.20861),Harbin,Heilongjiang
222,44.9286699999999,128.615199999999,POINT (128.615199999999 44.9286699999999),Harbin,Heilongjiang
1358,44.8142799999999,129.07494,POINT (129.07494 44.8142799999999),,Heilongjiang
865,44.5791699999999,129.101589999999,POINT (129.101589999999 44.5791699999999),,Heilongjiang
1536,44.56673,129.387429999999,POINT (129.387429999999 44.56673),Hailin,Heilongjiang
1661,44.5903599999999,129.6125,POINT (129.6125 44.5903599999999),,Heilongjiang
1954,44.9525399999999,128.38011,POINT (128.38011 44.9525399999999),Harbin,Heilongjiang
1671,45.4170299999999,127.16261,POINT (127.16261 45.4170299999999),Harbin,Heilongjiang
2301,45.55124,126.99634,POINT (126.99634 45.55124),Harbin,Heilongjiang
473,45.3959929999999,126.293015,POINT (126.293015 45.3959929999999),Shuangcheng District,Heilongjiang
2129,41.28188,123.16856,POINT (123.16856 41.28188),Baita District,Liaoning
1529,40.8632399999999,122.74269,POINT (122.74269 40.8632399999999),Haicheng City,Liaoning
1959,41.66259,123.355059999999,POINT (123.355059999999 41.66259),Shenyang City,Liaoning
297,43.2100099999999,124.06143,POINT (124.06143 43.2100099999999),,Liaoning
477,43.492004,123.518257,POINT (123.518257 43.492004),Siping City,Jilin
1501,46.3920099999999,123.411739999999,POINT (123.411739999999 46.3920099999999),Tailai,Heilongjiang
1429,46.77134,123.684389999999,POINT (123.684389999999 46.77134),,Heilongjiang
822,47.79733,124.46065,POINT (124.46065 47.79733),Fuyu,Heilongjiang
846,47.8697829999999,124.503808,POINT (124.503808 47.8697829999999),,Heilongjiang
191,47.96096,124.5484,POINT (124.5484 47.96096),,Heilongjiang
584,48.1037699999999,124.61689,POINT (124.61689 48.1037699999999),,Heilongjiang
1091,48.20552,124.63061,POINT (124.63061 48.20552),,Heilongjiang
304,48.350729,124.696811999999,POINT (124.696811999999 48.350729),,Heilongjiang
2076,48.48156,124.84846,POINT (124.84846 48.48156),Tongjiang Subdistrict,Heilongjiang
1917,48.6509799999999,125.00642,POINT (125.00642 48.6509799999999),,Heilongjiang
244,48.826203,125.164395,POINT (125.164395 48.826203),,Heilongjiang
174,48.881819,125.256185,POINT (125.256185 48.881819),,Heilongjiang
2423,49.0163799999999,125.245679999999,POINT (125.245679999999 49.0163799999999),鹤山农场,Heilongjiang
727,49.17795,125.24987,POINT (125.24987 49.17795),Nenjiang,Heilongjiang
556,49.3022199999999,125.21666,POINT (125.21666 49.3022199999999),Hulunbuir,Inner Mongolia
545,49.388072,125.181055,POINT (125.181055 49.388072),Hulunbuir,Inner Mongolia
1864,49.5138299999999,124.982429999999,POINT (124.982429999999 49.5138299999999),Hulunbuir,Inner Mongolia
2132,49.6659599999999,124.78928,POINT (124.78928 49.6659599999999),Hulunbuir,Inner Mongolia
643,49.74866,124.61038,POINT (124.61038 49.74866),Hulunbuir,Inner Mongolia
163,49.8891399999999,124.37482,POINT (124.37482 49.8891399999999),Hulunbuir,Inner Mongolia
1226,50.0259199999999,124.3291,POINT (124.3291 50.0259199999999),Hulunbuir,Inner Mongolia
375,50.41995,124.1267,POINT (124.1267 50.41995),Jiagedaqi,Heilongjiang
280,48.2845,124.64263,POINT (124.64263 48.2845),,Heilongjiang
1280,41.5792799999999,123.36309,POINT (123.36309 41.5792799999999),Shenyang City,Liaoning
1631,41.43032,123.31757,POINT (123.31757 41.43032),Dengta City,Liaoning
1004,41.3540599999999,123.27224,POINT (123.27224 41.3540599999999),Dengta City,Liaoning
1085,40.9653199999999,117.95449,POINT (117.95449 40.9653199999999),Chengde City,Hebei
69,40.77422,118.17668,POINT (118.17668 40.77422),Chengde County,Hebei
937,40.9996799999999,118.6999,POINT (118.6999 40.9996799999999),Pingquan City,Hebei
1251,40.9909699999999,118.8781,POINT (118.8781 40.9909699999999),Pingquan City,Hebei
23,41.014175,119.055147,POINT (119.055147 41.014175),Chaoyang City,Liaoning
353,41.23606,119.38372,POINT (119.38372 41.23606),Chaoyang City,Liaoning
498,41.39123,119.6438,POINT (119.6438 41.39123),Chaoyang City,Liaoning
303,41.35746,119.85117,POINT (119.85117 41.35746),Harqin Left Wing Mongolian Autonomous County,Liaoning
1227,41.57905,120.4415,POINT (120.4415 41.57905),Chaoyang City,Liaoning
400,41.7020169999999,120.818282,POINT (120.818282 41.7020169999999),Beipiao City,Liaoning
296,41.2661409999999,121.244581999999,POINT (121.244581999999 41.2661409999999),Taihe District,Liaoning
352,41.1812299999999,121.36287,POINT (121.36287 41.1812299999999),Linghai City,Liaoning
1144,42.00211,122.81733,POINT (122.81733 42.00211),Xinmin City,Liaoning
838,40.89981,118.644679999999,POINT (118.644679999999 40.89981),Pingquan City,Hebei
1084,40.889091,117.990216,POINT (117.990216 40.889091),Chengde City,Hebei
896,35.3789599999999,116.08786,POINT (116.08786 35.3789599999999),Juye County,Shandong
575,35.39249,116.35853,POINT (116.35853 35.39249),Jining City,Shandong
1519,35.39269,116.60133,POINT (116.60133 35.39269),Rencheng District,Shandong
1972,43.973976,123.421387,POINT (123.421387 43.973976),Siping City,Jilin
264,44.1278099999999,123.32607,POINT (123.32607 44.1278099999999),Tongliao City,Inner Mongolia
2465,45.2140199999999,122.82422,POINT (122.82422 45.2140199999999),,Jilin
2242,45.8578499999999,123.19515,POINT (123.19515 45.8578499999999),Zhenlai,Jilin
1073,48.0177699999999,122.74401,POINT (122.74401 48.0177699999999),Hulunbuir,Inner Mongolia
455,48.7542499999999,121.9187,POINT (121.9187 48.7542499999999),Hulunbuir,Inner Mongolia
155,48.857505,121.248974,POINT (121.248974 48.857505),Hulunbuir,Inner Mongolia
286,49.09371,121.06057,POINT (121.06057 49.09371),Hulunbuir,Inner Mongolia
1655,49.2794099999999,120.737669999999,POINT (120.737669999999 49.2794099999999),Hulunbuir,Inner Mongolia
673,49.2322399999999,120.55222,POINT (120.55222 49.2322399999999),Hulunbuir,Inner Mongolia
1074,49.21763,120.43509,POINT (120.43509 49.21763),Hailar District,Inner Mongolia
1534,49.2297599999999,119.74373,POINT (119.74373 49.2297599999999),Hailar District,Inner Mongolia
544,49.1918099999999,120.08306,POINT (120.08306 49.1918099999999),Hailar District,Inner Mongolia
938,46.5984899999999,123.54174,POINT (123.54174 46.5984899999999),,Heilongjiang
1763,41.19773,122.062029999999,POINT (122.062029999999 41.19773),Shuantaizi District,Liaoning
1136,41.07101,122.279979999999,POINT (122.279979999999 41.07101),Panjin City,Liaoning
1659,40.934409,122.518438,POINT (122.518438 40.934409),Haicheng City,Liaoning
2067,40.8438099999999,122.62212,POINT (122.62212 40.8438099999999),Haicheng City,Liaoning
549,45.705669,126.581102,POINT (126.581102 45.705669),Harbin,Heilongjiang
1200,46.9752799999999,129.48999,POINT (129.48999 46.9752799999999),,Heilongjiang
911,47.0234799999999,129.020919999999,POINT (129.020919999999 47.0234799999999),Dajingshan,Heilongjiang
2367,40.1299149999999,116.657044,POINT (116.657044 40.1299149999999),Shunyi District,
814,40.40789,116.69063,POINT (116.69063 40.40789),Huairou District,
337,40.41727,117.50076,POINT (117.50076 40.41727),Chengde City,Hebei
2427,40.5502699999999,117.66282,POINT (117.66282 40.5502699999999),Chengde City,Hebei
1055,40.31718,116.649159999999,POINT (116.649159999999 40.31718),Huairou District,
258,47.8744599999999,125.28667,POINT (125.28667 47.8744599999999),Yi'an,Heilongjiang
485,47.9615,125.680589,POINT (125.680589 47.9615),,Heilongjiang
284,48.01624,125.850759999999,POINT (125.850759999999 48.01624),Keshan,Heilongjiang
283,48.1605899999999,126.21137,POINT (126.21137 48.1605899999999),,Heilongjiang
393,48.2353099999999,126.51147,POINT (126.51147 48.2353099999999),兆麟街道办事处,Heilongjiang
2111,48.06228,126.73204,POINT (126.73204 48.06228),赵光农场,Heilongjiang
2148,47.7679499999999,126.76066,POINT (126.76066 47.7679499999999),,Heilongjiang
1524,47.4673599999999,126.99539,POINT (126.99539 47.4673599999999),Hailun,Heilongjiang
1888,47.2490499999999,127.08273,POINT (127.08273 47.2490499999999),Suiling,Heilongjiang
1231,41.29516,123.75881,POINT (123.75881 41.29516),,Liaoning
2153,40.78719,123.927049999999,POINT (123.927049999999 40.78719),Fengcheng City,Liaoning
354,40.4499799999999,124.0578,POINT (124.0578 40.4499799999999),Fengcheng City,Liaoning
5,40.34879,124.09754,POINT (124.09754 40.34879),Fengcheng City,Liaoning
1438,40.3108999999999,124.20908,POINT (124.20908 40.3108999999999),,Liaoning
215,40.2597299999999,124.27538,POINT (124.27538 40.2597299999999),,Liaoning
137,40.124974,124.389134,POINT (124.389134 40.124974),,Liaoning
1277,40.7176699999999,123.95225,POINT (123.95225 40.7176699999999),Fengcheng City,Liaoning
1984,40.87883,123.91119,POINT (123.91119 40.87883),,Liaoning
446,41.10264,123.7495,POINT (123.7495 41.10264),Nanfen District,Liaoning
581,46.9285089999999,127.003193999999,POINT (127.003193999999 46.9285089999999),,Heilongjiang
1011,47.0624299999999,127.005399999999,POINT (127.005399999999 47.0624299999999),,Heilongjiang
103,47.4107899999999,127.11293,POINT (127.11293 47.4107899999999),,Heilongjiang
1077,47.59387,126.942899999999,POINT (126.942899999999 47.59387),,Heilongjiang
1525,47.67005,126.87794,POINT (126.87794 47.67005),,Heilongjiang
1238,47.94032,126.75687,POINT (126.75687 47.94032),,Heilongjiang
605,47.5524199999999,124.23331,POINT (124.23331 47.5524199999999),,Heilongjiang
1164,35.40359,119.53246,POINT (119.53246 35.40359),Donggang District,Shandong
1990,35.1831499999999,118.8471,POINT (118.8471 35.1831499999999),Linyi City,Shandong
130,35.0364999999999,118.3441,POINT (118.3441 35.0364999999999),Lanshan District,Shandong
2097,35.26659,117.97711,POINT (117.97711 35.26659),Feixian,Shandong
945,35.5165399999999,117.64382,POINT (117.64382 35.5165399999999),Pingyi County,Shandong
1491,35.6362999999999,117.26188,POINT (117.26188 35.6362999999999),Jining City,Shandong
1211,35.58314,117.0305,POINT (117.0305 35.58314),Qufu City,Shandong
89,35.2895299999999,115.09016,POINT (115.09016 35.2895299999999),Dongming County,Shandong
2251,35.2108199999999,114.65976,POINT (114.65976 35.2108199999999),Changyuan City,Henan
176,44.14956,125.83754,POINT (125.83754 44.14956),Changchun City,Jilin
507,43.858792,126.574029999999,POINT (126.574029999999 43.858792),,Jilin
1444,43.33261,129.74052,POINT (129.74052 43.33261),Wangqing County,Jilin
623,43.41255,129.66317,POINT (129.66317 43.41255),Wangqing County,Jilin
976,43.50267,129.665539999999,POINT (129.665539999999 43.50267),Wangqing County,Jilin
678,43.5867399999999,129.633019999999,POINT (129.633019999999 43.5867399999999),Wangqing County,Jilin
1188,43.71569,129.444619999999,POINT (129.444619999999 43.71569),Wangqing County,Jilin
2431,43.8762499999999,129.28922,POINT (129.28922 43.8762499999999),,Heilongjiang
1112,43.9411899999999,129.261339999999,POINT (129.261339999999 43.9411899999999),,Heilongjiang
2380,44.019984,129.205216,POINT (129.205216 44.019984),,Heilongjiang
77,44.11804,129.22531,POINT (129.22531 44.11804),,Heilongjiang
745,44.3598199999999,129.462629999999,POINT (129.462629999999 44.3598199999999),Ning'an,Heilongjiang
2079,40.04052,122.08168,POINT (122.08168 40.04052),Wafangdian City,Liaoning
346,44.4360199999999,125.16128,POINT (125.16128 44.4360199999999),Changchun City,Jilin
1258,45.1094099999999,124.81726,POINT (124.81726 45.1094099999999),Songyuan City,Jilin
1500,46.8709399999999,124.44777,POINT (124.44777 46.8709399999999),泰康镇,Heilongjiang
2151,39.904553,116.62717,POINT (116.62717 39.904553),Tongzhou District,Beijing
1147,42.0200499999999,122.17685,POINT (122.17685 42.0200499999999),,Liaoning
1806,40.9281399999999,123.8165,POINT (123.8165 40.9281399999999),,Liaoning
1024,42.38734,122.52852,POINT (122.52852 42.38734),Zhangwu,Liaoning
689,37.8911439999999,112.592350999999,POINT (112.592350999999 37.8911439999999),Taiyuan City,Shanxi
1049,38.4196999999999,112.74655,POINT (112.74655 38.4196999999999),,Shanxi
465,38.71972,112.72815,POINT (112.72815 38.71972),Yuanping City,Shanxi
749,39.0068899999999,112.31918,POINT (112.31918 39.0068899999999),,Shanxi
1219,39.31598,112.4486,POINT (112.4486 39.31598),Beiwangzhuang Subdistrict,Shanxi
877,39.51785,112.82605,POINT (112.82605 39.51785),Dongcheng,Shanxi
1051,39.8285399999999,113.0942,POINT (113.0942 39.8285399999999),Huairen,Shanxi
2112,36.3813699999999,111.69949,POINT (111.69949 36.3813699999999),,Shanxi
1180,39.7038799999999,119.167869999999,POINT (119.167869999999 39.7038799999999),Qinhuangdao City,Hebei
557,39.8177919999999,118.117531,POINT (118.117531 39.8177919999999),Fengrun District,Hebei
1653,39.9414099999999,116.82585,POINT (116.82585 39.9414099999999),Sanhe City,Hebei
1699,42.95872,122.35617,POINT (122.35617 42.95872),Tongliao City,Inner Mongolia
1086,39.89423,119.249219999999,POINT (119.249219999999 39.89423),Funing,Hebei
611,39.0271699999999,117.64178,POINT (117.64178 39.0271699999999),Binhai New Area,Tianjin
2382,31.7075199999999,118.50216,POINT (118.50216 31.7075199999999),Huashan District,Anhui
396,39.8508199999999,119.42013,POINT (119.42013 39.8508199999999),Qinhuangdao City,Hebei
1552,33.96726,116.80309,POINT (116.80309 33.96726),Xiangshan District,Anhui
1544,33.48892,116.24042,POINT (116.24042 33.48892),Guoyang County,Anhui
1556,32.50148,115.41209,POINT (115.41209 32.50148),,Henan
1416,30.6189,114.25492,POINT (114.25492 30.6189),Jianghan District,Hubei
1224,42.0243189999999,118.225722,POINT (118.225722 42.0243189999999),Chengde City,Hebei
1916,42.1900699999999,118.27333,POINT (118.27333 42.1900699999999),,Inner Mongolia
1926,46.07762,125.99874,POINT (125.99874 46.07762),,Heilongjiang
1076,49.47314,117.69436,POINT (117.69436 49.47314),Zhalainuo'er District,Inner Mongolia
1601,49.58514,117.4504,POINT (117.4504 49.58514),Hulunbuir,Inner Mongolia
889,49.25652,118.09967,POINT (118.09967 49.25652),Hulunbuir,Inner Mongolia
635,46.533723,125.124405,POINT (125.124405 46.533723),Longfeng District,Heilongjiang
767,46.40272,125.32167,POINT (125.32167 46.40272),安虹街道办事处,Heilongjiang
2177,43.3421,124.57791,POINT (124.57791 43.3421),Siping City,Jilin
1137,49.133443,125.259232,POINT (125.259232 49.133443),Nenjiang,Heilongjiang
642,49.7121399999999,124.660929999999,POINT (124.660929999999 49.7121399999999),Hulunbuir,Inner Mongolia
1186,49.7910699999999,124.4925,POINT (124.4925 49.7910699999999),Hulunbuir,Inner Mongolia
2075,50.1525299999999,124.25447,POINT (124.25447 50.1525299999999),Hulunbuir,Inner Mongolia
374,50.2414169999999,124.194204,POINT (124.194204 50.2414169999999),Jiagedaqi,Heilongjiang
1261,50.5289039999999,124.246557,POINT (124.246557 50.5289039999999),,Heilongjiang
1915,50.619509,124.270129,POINT (124.270129 50.619509),,Heilongjiang
842,50.7953899999999,124.28675,POINT (124.28675 50.7953899999999),,Heilongjiang
489,50.9208939999999,124.319754,POINT (124.319754 50.9208939999999),,Heilongjiang
640,51.0050999999999,124.200419999999,POINT (124.200419999999 51.0050999999999),,Heilongjiang
377,51.073393,124.195673,POINT (124.195673 51.073393),,Heilongjiang
1128,51.21202,124.214969999999,POINT (124.214969999999 51.21202),,Heilongjiang
702,51.32641,124.32456,POINT (124.32456 51.32641),,Heilongjiang
610,51.4515999999999,124.28991,POINT (124.28991 51.4515999999999),,Heilongjiang
1278,51.57921,124.35877,POINT (124.35877 51.57921),新林镇,Heilongjiang
1142,51.68072,124.413259999999,POINT (124.413259999999 51.68072),新林镇,Heilongjiang
620,51.79083,124.53664,POINT (124.53664 51.79083),,Heilongjiang
1790,51.94961,124.61441,POINT (124.61441 51.94961),,Heilongjiang
1914,52.0435599999999,124.6941,POINT (124.6941 52.0435599999999),,Heilongjiang
606,52.2421989999999,124.721829,POINT (124.721829 52.2421989999999),,Heilongjiang
609,52.33308,124.69971,POINT (124.69971 52.33308),Tahe,Heilongjiang
1883,52.494593,124.606353,POINT (124.606353 52.494593),,Heilongjiang
1696,52.5896899999999,124.54678,POINT (124.54678 52.5896899999999),,Heilongjiang
1761,52.70391,123.87939,POINT (123.87939 52.70391),,Heilongjiang
2305,52.8614499999999,123.162634999999,POINT (123.162634999999 52.8614499999999),劲涛镇,Heilongjiang
590,52.93235,122.792689999999,POINT (122.792689999999 52.93235),,Heilongjiang
1610,52.98948,122.50765,POINT (122.50765 52.98948),Mohe,Heilongjiang
1155,49.0691199999999,125.28252,POINT (125.28252 49.0691199999999),,Heilongjiang
2346,48.103765,124.616530999999,POINT (124.616530999999 48.103765),,Heilongjiang
1866,47.1169,123.91405,POINT (123.91405 47.1169),,Heilongjiang
691,37.7912,112.60939,POINT (112.60939 37.7912),Taiyuan City,Shanxi
2120,38.8944199999999,112.43098,POINT (112.43098 38.8944199999999),Yuanping City,Shanxi
2044,36.50601,113.03502,POINT (113.03502 36.50601),Xiangyuan County,Shanxi
1075,49.4438499999999,117.76942,POINT (117.76942 49.4438499999999),Zhalainuo'er District,Inner Mongolia
2061,48.84901,121.48408,POINT (121.48408 48.84901),Hulunbuir,Inner Mongolia
331,48.820968,121.672331,POINT (121.672331 48.820968),Hulunbuir,Inner Mongolia
904,48.31568,122.3338,POINT (122.3338 48.31568),Hulunbuir,Inner Mongolia
1068,47.74862,122.83933,POINT (122.83933 47.74862),Hulunbuir,Inner Mongolia
2479,47.3297099999999,123.17906,POINT (123.17906 47.3297099999999),Longjiang,Heilongjiang
1721,47.281511,123.278015,POINT (123.278015 47.281511),白山乡,Heilongjiang
2025,47.2468399999999,123.54979,POINT (123.54979 47.2468399999999),,Heilongjiang
819,47.21072,123.64633,POINT (123.64633 47.21072),Fularji District,Heilongjiang
2375,41.89833,123.2373,POINT (123.2373 41.89833),Shenyang City,Liaoning
363,40.67186,123.9869,POINT (123.9869 40.67186),Fengcheng City,Liaoning
108,40.5295899999999,124.04725,POINT (124.04725 40.5295899999999),Fengcheng City,Liaoning
2272,40.5813599999999,123.99184,POINT (123.99184 40.5813599999999),Fengcheng City,Liaoning
2141,40.9694849999999,123.757972,POINT (123.757972 40.9694849999999),,Liaoning
1793,47.51552,122.88327,POINT (122.88327 47.51552),,Heilongjiang
441,48.1787599999999,122.3666,POINT (122.3666 48.1787599999999),Hulunbuir,Inner Mongolia
2321,44.8269099999999,125.93917,POINT (125.93917 44.8269099999999),,Jilin
1836,44.5273299999999,130.26112,POINT (130.26112 44.5273299999999),,Heilongjiang
246,44.6000599999999,130.35362,POINT (130.35362 44.6000599999999),,Heilongjiang
67,44.67137,130.44745,POINT (130.44745 44.67137),,Heilongjiang
2378,44.68363,130.555579999999,POINT (130.555579999999 44.68363),,Heilongjiang
1865,44.5983799999999,130.61193,POINT (130.61193 44.5983799999999),,Heilongjiang
1890,44.42188,130.8947,POINT (130.8947 44.42188),,Heilongjiang
1889,44.3928299999999,131.15731,POINT (131.15731 44.3928299999999),Suifenhe,Heilongjiang
4,45.0623599999999,128.080749999999,POINT (128.080749999999 45.0623599999999),Harbin,Heilongjiang
111,47.68009,124.38236,POINT (124.38236 47.68009),Youyi,Heilongjiang
820,47.866818,124.864705,POINT (124.864705 47.866818),,Heilongjiang
1913,47.6135209999999,124.310481,POINT (124.310481 47.6135209999999),Youyi,Heilongjiang
547,45.78855,126.71087,POINT (126.71087 45.78855),Harbin,Heilongjiang
981,46.1966299999999,126.8173,POINT (126.8173 46.1966299999999),Harbin,Heilongjiang
1720,46.3711899999999,127.00413,POINT (127.00413 46.3711899999999),Harbin,Heilongjiang
185,48.3568399999999,126.52794,POINT (126.52794 48.3568399999999),城郊乡,Heilongjiang
192,48.4900499999999,126.64143,POINT (126.64143 48.4900499999999),,Heilongjiang
205,48.629148,126.61751,POINT (126.61751 48.629148),沾河林业局,Heilongjiang
2486,48.6862799999999,126.71612,POINT (126.71612 48.6862799999999),,Heilongjiang
2047,48.8025099999999,126.85542,POINT (126.85542 48.8025099999999),襄河农场,Heilongjiang
2124,49.1416809999999,127.238722,POINT (127.238722 49.1416809999999),,Heilongjiang
733,49.42669,127.32335,POINT (127.32335 49.42669),Sunwu,Heilongjiang
1622,49.7389069999999,127.370028,POINT (127.370028 49.7389069999999),,Heilongjiang
2060,49.9035999999999,127.34846,POINT (127.34846 49.9035999999999),,Heilongjiang
2235,50.1371699999999,127.41415,POINT (127.41415 50.1371699999999),锦河农场,Heilongjiang
2466,50.2337599999999,127.500519999999,POINT (127.500519999999 50.2337599999999),花园街道办事处,Heilongjiang
1765,46.2991999999999,126.89623,POINT (126.89623 46.2991999999999),Harbin,Heilongjiang
1310,44.7673899999999,129.687099999999,POINT (129.687099999999 44.7673899999999),,Heilongjiang
1232,44.876544,129.858066,POINT (129.858066 44.876544),,Heilongjiang
798,45.02877,129.97799,POINT (129.97799 45.02877),,Heilongjiang
1344,45.11925,130.02937,POINT (130.02937 45.11925),,Heilongjiang
1276,45.2925499999999,130.27019,POINT (130.27019 45.2925499999999),Linkou,Heilongjiang
2073,45.2133609999999,130.479852999999,POINT (130.479852999999 45.2133609999999),Mashan,Heilongjiang
312,45.2971399999999,130.70542,POINT (130.70542 45.2971399999999),Didao District,Heilongjiang
2417,45.3047299999999,130.978129999999,POINT (130.978129999999 45.3047299999999),Jiguan District,Heilongjiang
2415,45.2530199999999,131.15215,POINT (131.15215 45.2530199999999),Jidong,Heilongjiang
1398,45.339319,131.477787,POINT (131.477787 45.339319),,Heilongjiang
815,45.5514399999999,131.873799999999,POINT (131.873799999999 45.5514399999999),Mishan,Heilongjiang
2462,45.40921,131.624699999999,POINT (131.624699999999 45.40921),,Heilongjiang
93,45.294493,131.333332,POINT (131.333332 45.294493),,Heilongjiang
1609,45.3461799999999,130.832879999999,POINT (130.832879999999 45.3461799999999),Didao District,Heilongjiang
668,44.57086,129.902279999999,POINT (129.902279999999 44.57086),,Heilongjiang
2723,44.5595289999999,130.67831,POINT (130.67831 44.5595289999999),,Heilongjiang
2722,44.4410189999999,130.828256,POINT (130.828256 44.4410189999999),,Heilongjiang
1799,44.5453699999999,129.759516999999,POINT (129.759516999999 44.5453699999999),,Heilongjiang
239,44.54072,130.01929,POINT (130.01929 44.54072),,Heilongjiang
398,44.5176599999999,130.152909999999,POINT (130.152909999999 44.5176599999999),,Heilongjiang
298,44.9266599999999,130.54219,POINT (130.54219 44.9266599999999),,Heilongjiang
1342,45.0783399999999,130.68226,POINT (130.68226 45.0783399999999),Lishu District,Heilongjiang
1781,45.167118,130.705236,POINT (130.705236 45.167118),Lishu District,Heilongjiang
1305,45.2361599999999,130.78322,POINT (130.78322 45.2361599999999),,Heilongjiang
772,46.2222399999999,125.64148,POINT (125.64148 46.2222399999999),,Heilongjiang
2391,47.41373,124.07236,POINT (124.07236 47.41373),Jianhua Direct Administrated Area,Heilongjiang
349,47.46528,124.1314,POINT (124.1314 47.46528),,Heilongjiang
551,47.73592,124.43598,POINT (124.43598 47.73592),Youyi,Heilongjiang
292,48.40917,124.7865,POINT (124.7865 48.40917),,Heilongjiang
1056,48.5614709999999,124.965127,POINT (124.965127 48.5614709999999),,Heilongjiang
1015,48.902523,125.27217,POINT (125.27217 48.902523),,Heilongjiang
636,46.5986699999999,125.01187,POINT (125.01187 46.5986699999999),,Heilongjiang
13,45.8850899999999,126.46489,POINT (126.46489 45.8850899999999),Harbin,Heilongjiang
2487,48.894765,126.870686,POINT (126.870686 48.894765),龙门农场,Heilongjiang
624,46.8766699999999,123.75179,POINT (123.75179 46.8766699999999),,Heilongjiang
1440,46.98724,123.77575,POINT (123.77575 46.98724),,Heilongjiang
48,47.098325,123.842772999999,POINT (123.842772999999 47.098325),Ang'angxi,Heilongjiang
1348,47.15518,123.89574,POINT (123.89574 47.15518),,Heilongjiang
1411,46.787011,130.511613,POINT (130.511613 46.787011),,Heilongjiang
583,46.7750199999999,130.62761,POINT (130.62761 46.7750199999999),,Heilongjiang
695,46.7761629999999,130.724697999999,POINT (130.724697999999 46.7761629999999),,Heilongjiang
117,46.81177,130.87512,POINT (130.87512 46.81177),,Heilongjiang
1843,46.787457,131.003417,POINT (131.003417 46.787457),Jixian,Heilongjiang
1817,46.7221699999999,131.13432,POINT (131.13432 46.7221699999999),Jixian,Heilongjiang
408,46.7267799999999,131.37458,POINT (131.37458 46.7267799999999),,Heilongjiang
1857,46.72607,131.59555,POINT (131.59555 46.72607),,Heilongjiang
1123,46.7661799999999,131.815069999999,POINT (131.815069999999 46.7661799999999),Youyi,Heilongjiang
178,46.9198999999999,131.95362,POINT (131.95362 46.9198999999999),,Heilongjiang
823,47.23751,132.046969999999,POINT (132.046969999999 47.23751),,Heilongjiang
515,47.3082169999999,132.337167999999,POINT (132.337167999999 47.3082169999999),,Heilongjiang
479,47.3096699999999,132.497919999999,POINT (132.497919999999 47.3096699999999),,Heilongjiang
1098,47.3620299999999,133.06351,POINT (133.06351 47.3620299999999),,Heilongjiang
371,47.54417,133.12455,POINT (133.12455 47.54417),,Heilongjiang
988,47.2465899999999,132.63645,POINT (132.63645 47.2465899999999),,Heilongjiang
478,46.6453599999999,131.15181,POINT (131.15181 46.6453599999999),Jianshan District,Heilongjiang
1606,45.77608,126.65617,POINT (126.65617 45.77608),Harbin,Heilongjiang
1335,44.6779799999999,129.67558,POINT (129.67558 44.6779799999999),,Heilongjiang
209,44.82083,129.79243,POINT (129.79243 44.82083),,Heilongjiang
517,45.196807,130.095890999999,POINT (130.095890999999 45.196807),,Heilongjiang
486,45.35486,130.29472,POINT (130.29472 45.35486),,Heilongjiang
224,45.397294,130.432311,POINT (130.432311 45.397294),,Heilongjiang
2341,45.452562,130.575562999999,POINT (130.575562999999 45.452562),,Heilongjiang
2026,45.56949,130.62348,POINT (130.62348 45.56949),,Heilongjiang
255,45.62773,130.576439999999,POINT (130.576439999999 45.62773),,Heilongjiang
2149,45.7118899999999,130.54666,POINT (130.54666 45.7118899999999),,Heilongjiang
379,45.756,130.55958,POINT (130.55958 45.756),Qitaihe City,Heilongjiang
1241,45.92253,130.56388,POINT (130.56388 45.92253),,Heilongjiang
271,46.0047399999999,130.53027,POINT (130.53027 46.0047399999999),,Heilongjiang
2277,46.108879,130.523891999999,POINT (130.523891999999 46.108879),,Heilongjiang
1334,46.2439299999999,130.584579999999,POINT (130.584579999999 46.2439299999999),Huanan,Heilongjiang
295,46.334992,130.646189999999,POINT (130.646189999999 46.334992),Huanan,Heilongjiang
740,46.42199,130.66011,POINT (130.66011 46.42199),,Heilongjiang
1709,46.5974399999999,130.657649999999,POINT (130.657649999999 46.5974399999999),,Heilongjiang
2249,46.73603,130.481879999999,POINT (130.481879999999 46.73603),,Heilongjiang
667,45.8439199999999,130.58204,POINT (130.58204 45.8439199999999),,Heilongjiang
1414,49.2916799999999,120.83119,POINT (120.83119 49.2916799999999),Hulunbuir,Inner Mongolia
1662,49.4093099999999,121.1339,POINT (121.1339 49.4093099999999),Hulunbuir,Inner Mongolia
1647,49.47974,121.31971,POINT (121.31971 49.47974),Hulunbuir,Inner Mongolia
156,49.5661399999999,121.385009999999,POINT (121.385009999999 49.5661399999999),Hulunbuir,Inner Mongolia
874,49.7107499999999,121.247919999999,POINT (121.247919999999 49.7107499999999),Hulunbuir,Inner Mongolia
466,49.88678,121.395619999999,POINT (121.395619999999 49.88678),Hulunbuir,Inner Mongolia
971,50.0274199999999,121.63021,POINT (121.63021 50.0274199999999),Hulunbuir,Inner Mongolia
876,50.21123,121.785929999999,POINT (121.785929999999 50.21123),Hulunbuir,Inner Mongolia
875,50.30747,121.76097,POINT (121.76097 50.30747),Hulunbuir,Inner Mongolia
591,50.48369,121.67451,POINT (121.67451 50.48369),Hulunbuir,Inner Mongolia
241,50.62848,121.55211,POINT (121.55211 50.62848),Hulunbuir,Inner Mongolia
555,50.6862489999999,121.525572999999,POINT (121.525572999999 50.6862489999999),Hulunbuir,Inner Mongolia
1314,50.7768099999999,121.51042,POINT (121.51042 50.7768099999999),Hulunbuir,Inner Mongolia
1222,50.917594,121.370536,POINT (121.370536 50.917594),Hulunbuir,Inner Mongolia
2210,51.33587,121.49984,POINT (121.49984 51.33587),Hulunbuir,Inner Mongolia
1660,51.5523999999999,121.73871,POINT (121.73871 51.5523999999999),Hulunbuir,Inner Mongolia
2309,51.6878999999999,121.87961,POINT (121.87961 51.6878999999999),Hulunbuir,Inner Mongolia
2296,51.9459099999999,122.00072,POINT (122.00072 51.9459099999999),Hulunbuir,Inner Mongolia
1600,52.0367,122.074749999999,POINT (122.074749999999 52.0367),Hulunbuir,Inner Mongolia
154,49.15388,119.32767,POINT (119.32767 49.15388),Hulunbuir,Inner Mongolia
773,49.1863499999999,118.89954,POINT (118.89954 49.1863499999999),Hulunbuir,Inner Mongolia
2110,49.20187,118.4665,POINT (118.4665 49.20187),Hulunbuir,Inner Mongolia
1930,49.54939,117.54701,POINT (117.54701 49.54939),Hulunbuir,Inner Mongolia
1996,46.87357,130.32302,POINT (130.32302 46.87357),Jiao,Heilongjiang
2426,47.05286,130.29202,POINT (130.29202 47.05286),,Heilongjiang
1121,47.111603,130.298047,POINT (130.298047 47.111603),Hegang City,Heilongjiang
886,47.19691,130.29189,POINT (130.29189 47.19691),Hegang City,Heilongjiang
2424,47.34033,130.28473,POINT (130.28473 47.34033),Hegang City,Heilongjiang
410,46.94774,130.316589999999,POINT (130.316589999999 46.94774),Jiao,Heilongjiang
1330,41.199399,123.736543999999,POINT (123.736543999999 41.199399),,Liaoning
2199,41.133915,123.741214,POINT (123.741214 41.133915),Nanfen District,Liaoning
2669,41.219045,123.70733,POINT (123.70733 41.219045),,Liaoning
1778,41.4515,123.72351,POINT (123.72351 41.4515),,Liaoning
1379,41.49318,123.68324,POINT (123.68324 41.49318),,Liaoning
2659,41.354132,123.900947,POINT (123.900947 41.354132),,Liaoning
2812,41.39453,123.984735,POINT (123.984735 41.39453),,Liaoning
2719,41.384456,124.052518,POINT (124.052518 41.384456),,Liaoning
2749,41.344709,124.064366,POINT (124.064366 41.344709),,Liaoning
2767,41.3168039999999,124.130142,POINT (124.130142 41.3168039999999),,Liaoning
521,41.6258399999999,123.44519,POINT (123.44519 41.6258399999999),Shenyang City,Liaoning
2316,41.56486,123.53097,POINT (123.53097 41.56486),Shenyang City,Liaoning
712,41.53197,123.61863,POINT (123.61863 41.53197),,Liaoning
717,41.34673,123.81984,POINT (123.81984 41.34673),,Liaoning
72,41.03177,123.73587,POINT (123.73587 41.03177),Nanfen District,Liaoning
2003,40.68583,122.26499,POINT (122.26499 40.68583),Yingkou City,Liaoning
1919,40.8051699999999,120.731979999999,POINT (120.731979999999 40.8051699999999),Huludao City,Liaoning
1635,41.1944799999999,123.04879,POINT (123.04879 41.1944799999999),Lishan District,Liaoning
2147,41.754249,125.982276,POINT (125.982276 41.754249),,Jilin
2418,41.76193,126.18101,POINT (126.18101 41.76193),,Jilin
1998,41.8040999999999,126.24455,POINT (126.24455 41.8040999999999),,Jilin
2159,41.84441,126.28895,POINT (126.28895 41.84441),,Jilin
1918,41.8798999999999,126.35423,POINT (126.35423 41.8798999999999),,Jilin
1722,41.9531289999999,126.457267,POINT (126.457267 41.9531289999999),,Jilin
533,41.994903,126.544057,POINT (126.544057 41.994903),,Jilin
1433,42.0415199999999,126.58265,POINT (126.58265 42.0415199999999),Jiangyuan,Jilin
619,42.0788629999999,126.775595999999,POINT (126.775595999999 42.0788629999999),,Jilin
1589,42.06635,126.90007,POINT (126.90007 42.06635),,Jilin
1263,42.0482209999999,127.109426,POINT (127.109426 42.0482209999999),,Jilin
1386,42.128148,127.176018,POINT (127.176018 42.128148),,Jilin
233,42.17631,127.24051,POINT (127.24051 42.17631),,Jilin
1266,42.18838,127.48166,POINT (127.48166 42.18838),Fusong,Jilin
1487,42.33988,127.540679999999,POINT (127.540679999999 42.33988),,Jilin
1788,42.51339,127.69989,POINT (127.69989 42.51339),,Jilin
1734,42.4594689999999,128.138838999999,POINT (128.138838999999 42.4594689999999),Antu County,Jilin
2338,42.51337,127.81476,POINT (127.81476 42.51337),,Jilin
2625,41.2629609999999,119.415415999999,POINT (119.415415999999 41.2629609999999),Chaoyang City,Liaoning
2713,41.1195359999999,119.170946,POINT (119.170946 41.1195359999999),Chaoyang City,Liaoning
2748,40.982702,119.07152,POINT (119.07152 40.982702),,Liaoning
2528,40.922134,119.07983,POINT (119.07983 40.922134),,Liaoning
2531,40.8705939999999,119.09705,POINT (119.09705 40.8705939999999),Chaoyang City,Liaoning
2527,40.749381,119.122646,POINT (119.122646 40.749381),,Liaoning
2783,40.7257529999999,119.141909,POINT (119.141909 40.7257529999999),,Liaoning
2502,40.7334129999999,119.213860999999,POINT (119.213860999999 40.7334129999999),Chaoyang City,Liaoning
2683,40.816267,119.392187,POINT (119.392187 40.816267),,Liaoning
2732,40.8606139999999,119.445871,POINT (119.445871 40.8606139999999),,Liaoning
2597,40.885463,119.504966,POINT (119.504966 40.885463),,Liaoning
2778,40.9141279999999,119.552612,POINT (119.552612 40.9141279999999),,Liaoning
2653,40.87859,119.756246,POINT (119.756246 40.87859),,Liaoning
2591,40.806617,119.823294,POINT (119.823294 40.806617),Jianchang,Liaoning
2652,40.718952,119.94301,POINT (119.94301 40.718952),Huludao City,Liaoning
2781,40.7010489999999,120.007071,POINT (120.007071 40.7010489999999),Huludao City,Liaoning
2782,40.7001459999999,120.073392,POINT (120.073392 40.7001459999999),Huludao City,Liaoning
2716,40.730913,120.109213,POINT (120.109213 40.730913),,Liaoning
2548,40.7710489999999,120.209554999999,POINT (120.209554999999 40.7710489999999),Huludao City,Liaoning
2524,40.728327,120.324901,POINT (120.324901 40.728327),Huludao City,Liaoning
2517,40.728388,120.42811,POINT (120.42811 40.728388),Huludao City,Liaoning
2558,40.738325,120.533575,POINT (120.533575 40.738325),Huludao City,Liaoning
2602,40.7920099999999,120.644825,POINT (120.644825 40.7920099999999),Huludao City,Liaoning
2627,40.770018,120.807213,POINT (120.807213 40.770018),Huludao City,Liaoning
2786,40.790661,120.883587,POINT (120.883587 40.790661),Huludao City,Liaoning
2546,40.9040049999999,121.012276,POINT (121.012276 40.9040049999999),,Liaoning
2660,41.073338,121.050419,POINT (121.050419 41.073338),Taihe District,Liaoning
2728,41.113211,121.096521,POINT (121.096521 41.113211),Taihe District,Liaoning
1343,43.969602,126.553276999999,POINT (126.553276999999 43.969602),,Jilin
220,44.0663309999999,126.537834,POINT (126.537834 44.0663309999999),,Jilin
626,44.163428,126.58076,POINT (126.58076 44.163428),,Jilin
120,44.25164,126.71458,POINT (126.71458 44.25164),,Jilin
508,44.2883,126.803079999999,POINT (126.803079999999 44.2883),,Jilin
1847,44.1478699999999,125.47758,POINT (125.47758 44.1478699999999),Changchun City,Jilin
1451,44.2285899999999,125.53236,POINT (125.53236 44.2285899999999),Changchun City,Jilin
908,44.3828099999999,125.62903,POINT (125.62903 44.3828099999999),Dehui City,Jilin
2130,44.65838,125.82174,POINT (125.82174 44.65838),Dehui City,Jilin
714,44.7771789999999,125.876858,POINT (125.876858 44.7771789999999),Dehui City,Jilin
210,44.8014099999999,126.16105,POINT (126.16105 44.8014099999999),Yushu City,Jilin
362,44.8020799999999,126.30517,POINT (126.30517 44.8020799999999),Yushu City,Jilin
1350,44.8170599999999,126.53501,POINT (126.53501 44.8170599999999),Yushu City,Jilin
2681,41.263812,124.228052,POINT (124.228052 41.263812),,Liaoning
2734,41.247664,124.346678,POINT (124.346678 41.247664),,Liaoning
630,40.552719,124.251101,POINT (124.251101 40.552719),Fengcheng City,Liaoning
1769,40.634298,124.308565,POINT (124.308565 40.634298),Fengcheng City,Liaoning
2215,40.6892199999999,124.34756,POINT (124.34756 40.6892199999999),Fengcheng City,Liaoning
2126,40.7255899999999,124.37908,POINT (124.37908 40.7255899999999),Fengcheng City,Liaoning
256,40.7540699999999,124.418679999999,POINT (124.418679999999 40.7540699999999),Fengcheng City,Liaoning
978,40.7988399999999,124.45596,POINT (124.45596 40.7988399999999),Fengcheng City,Liaoning
1628,40.8622599999999,124.56636,POINT (124.56636 40.8622599999999),,Liaoning
679,40.970137,124.693609,POINT (124.693609 40.970137),,Liaoning
2328,41.2237459999999,125.310982999999,POINT (125.310982999999 41.2237459999999),Huanren Manchu Autonomous County,Liaoning
674,41.184137,125.169833,POINT (125.169833 41.184137),Huanren Manchu Autonomous County,Liaoning
206,41.2784669999999,125.327055,POINT (125.327055 41.2784669999999),Huanren Manchu Autonomous County,Liaoning
1329,41.3504799999999,125.377596999999,POINT (125.377596999999 41.3504799999999),Huanren Manchu Autonomous County,Liaoning
484,41.485539,125.467855,POINT (125.467855 41.485539),Huanren Manchu Autonomous County,Liaoning
2146,41.67929,125.7594,POINT (125.7594 41.67929),,Jilin
1957,41.6086359999999,123.367909999999,POINT (123.367909999999 41.6086359999999),Shenyang City,Liaoning
2416,40.5193099999999,123.92518,POINT (123.92518 40.5193099999999),Fengcheng City,Liaoning
680,40.81492,124.50761,POINT (124.50761 40.81492),,Liaoning
2484,40.81958,124.648619999999,POINT (124.648619999999 40.81958),,Liaoning
810,40.7198599999999,124.78175,POINT (124.78175 40.7198599999999),Kuandian,Liaoning
1408,40.55848,124.842789999999,POINT (124.842789999999 40.55848),,Liaoning
2270,40.48174,124.811205,POINT (124.811205 40.48174),,Liaoning
1829,40.6323999999999,123.943749999999,POINT (123.943749999999 40.6323999999999),Fengcheng City,Liaoning
2706,41.4585799999999,119.556218,POINT (119.556218 41.4585799999999),,Liaoning
1468,41.4973999999999,119.46716,POINT (119.46716 41.4973999999999),Chaoyang City,Liaoning
2655,41.548115,119.387197,POINT (119.387197 41.548115),Chaoyang City,Liaoning
676,41.5952899999999,119.33788,POINT (119.33788 41.5952899999999),Ningcheng,Inner Mongolia
193,41.698712,119.276939,POINT (119.276939 41.698712),,Inner Mongolia
1420,41.7988319999999,119.266043999999,POINT (119.266043999999 41.7988319999999),,Inner Mongolia
145,41.9114829999999,119.273452,POINT (119.273452 41.9114829999999),Harqin Banner,Inner Mongolia
931,41.9810799999999,119.25667,POINT (119.25667 41.9810799999999),Harqin Banner,Inner Mongolia
932,42.04083,119.30628,POINT (119.30628 42.04083),平庄镇,Inner Mongolia
1644,42.139462,119.276188,POINT (119.276188 42.139462),,Inner Mongolia
274,42.2346799999999,119.242009999999,POINT (119.242009999999 42.2346799999999),,Inner Mongolia
2377,42.274245,119.182970999999,POINT (119.182970999999 42.274245),元宝山镇,Inner Mongolia
2493,42.4180679999999,119.330971,POINT (119.330971 42.4180679999999),,Inner Mongolia
2539,42.351502,119.418415,POINT (119.418415 42.351502),,Inner Mongolia
2697,42.3592379999999,119.449061,POINT (119.449061 42.3592379999999),,Inner Mongolia
2765,42.404434,119.555092,POINT (119.555092 42.404434),,Inner Mongolia
2619,42.57907,119.735707,POINT (119.735707 42.57907),,Inner Mongolia
2552,42.621195,119.859926,POINT (119.859926 42.621195),古鲁板蒿镇,Inner Mongolia
2494,42.644505,120.153166,POINT (120.153166 42.644505),,Inner Mongolia
2694,42.7071219999999,120.257598,POINT (120.257598 42.7071219999999),,Inner Mongolia
2776,42.7169189999999,120.335607999999,POINT (120.335607999999 42.7169189999999),,Inner Mongolia
2811,42.7261469999999,120.535411999999,POINT (120.535411999999 42.7261469999999),Tongliao City,Inner Mongolia
2701,42.754606,120.672503,POINT (120.672503 42.754606),Tongliao City,Inner Mongolia
2498,43.0795379999999,120.839689,POINT (120.839689 43.0795379999999),Tongliao City,Inner Mongolia
2583,43.148347,120.958496999999,POINT (120.958496999999 43.148347),Tongliao City,Inner Mongolia
2495,43.263773,121.186473,POINT (121.186473 43.263773),Tongliao City,Inner Mongolia
2529,43.2792719999999,121.234866999999,POINT (121.234866999999 43.2792719999999),Tongliao City,Inner Mongolia
2542,43.3114429999999,121.357895,POINT (121.357895 43.3114429999999),Tongliao City,Inner Mongolia
2801,43.3560019999999,121.515797,POINT (121.515797 43.3560019999999),Tongliao City,Inner Mongolia
2743,43.4151069999999,121.74961,POINT (121.74961 43.4151069999999),Tongliao City,Inner Mongolia
2724,43.425735,121.870362,POINT (121.870362 43.425735),Tongliao City,Inner Mongolia
2756,43.4923709999999,122.088076,POINT (122.088076 43.4923709999999),Tongliao City,Inner Mongolia
2712,42.358725,119.170533,POINT (119.170533 42.358725),,Inner Mongolia
2593,43.96475,126.751634999999,POINT (126.751634999999 43.96475),,Jilin
2730,43.9108129999999,126.961738,POINT (126.961738 43.9108129999999),,Jilin
2629,43.941101,127.084915,POINT (127.084915 43.941101),,Jilin
2612,43.927233,127.189002,POINT (127.189002 43.927233),,Jilin
2764,43.89473,127.266779,POINT (127.266779 43.89473),,Jilin
1738,43.58203,127.56082,POINT (127.56082 43.58203),,Jilin
2448,43.6419199999999,127.72788,POINT (127.72788 43.6419199999999),,Jilin
2451,43.5557799999999,128.017599999999,POINT (128.017599999999 43.5557799999999),Dunhua City,Jilin
656,43.3055099999999,128.50155,POINT (128.50155 43.3055099999999),Dunhua City,Jilin
2560,43.267924,128.63469,POINT (128.63469 43.267924),Dunhua City,Jilin
2515,43.0401299999999,129.018359,POINT (129.018359 43.0401299999999),Antu County,Jilin
2789,42.990527,129.091557999999,POINT (129.091557999999 42.990527),Antu County,Jilin
1225,42.872957,129.393008,POINT (129.393008 42.872957),,Jilin
1016,46.20022,121.732519999999,POINT (121.732519999999 46.20022),,Inner Mongolia
657,46.3124899999999,121.38382,POINT (121.38382 46.3124899999999),,Inner Mongolia
2641,46.408154,121.421344,POINT (121.421344 46.408154),,Inner Mongolia
1036,46.4941299999999,121.36391,POINT (121.36391 46.4941299999999),德佰斯镇,Inner Mongolia
1851,46.60289,121.24224,POINT (121.24224 46.60289),,Inner Mongolia
1183,46.712116,120.833986,POINT (120.833986 46.712116),,Inner Mongolia
203,46.7706409999999,120.319524,POINT (120.319524 46.7706409999999),,Inner Mongolia
2658,46.8799739999999,120.2542,POINT (120.2542 46.8799739999999),,Inner Mongolia
1737,47.0494899999999,120.10154,POINT (120.10154 47.0494899999999),,Inner Mongolia
2656,47.144981,120.103201,POINT (120.103201 47.144981),,Inner Mongolia
2508,47.1127049999999,120.036815,POINT (120.036815 47.1127049999999),,Inner Mongolia
2303,47.17217,119.948179999999,POINT (119.948179999999 47.17217),Arxan,Inner Mongolia
104,41.77094,126.044286,POINT (126.044286 41.77094),,Jilin
1391,41.77656,126.12257,POINT (126.12257 41.77656),,Jilin
2735,41.72321,126.210264,POINT (126.210264 41.72321),,Jilin
2559,41.5988929999999,126.255709999999,POINT (126.255709999999 41.5988929999999),,Jilin
2704,41.5177389999999,126.297164,POINT (126.297164 41.5177389999999),,Jilin
2610,41.4113109999999,126.299955,POINT (126.299955 41.4113109999999),,Jilin
2579,41.336855,126.342115,POINT (126.342115 41.336855),,Jilin
2757,41.284801,126.301609,POINT (126.301609 41.284801),,Jilin
2780,41.2231689999999,126.250435,POINT (126.250435 41.2231689999999),Ji'an,Jilin
2588,41.136426,126.204224,POINT (126.204224 41.136426),Ji'an,Jilin
2621,41.95684,126.605566,POINT (126.605566 41.95684),,Jilin
2718,41.9041769999999,126.729695,POINT (126.729695 41.9041769999999),Linjiang City,Jilin
2622,41.803614,126.902921,POINT (126.902921 41.803614),Linjiang City,Jilin
2707,41.9622579999999,126.558848,POINT (126.558848 41.9622579999999),,Jilin
645,43.722147,122.814725999999,POINT (122.814725999999 43.722147),Tongliao City,Inner Mongolia
2522,43.694434,122.952676,POINT (122.952676 43.694434),Tongliao City,Inner Mongolia
2201,43.38302,123.57803,POINT (123.57803 43.38302),Siping City,Jilin
37,43.3716,123.720389999999,POINT (123.720389999999 43.3716),,Liaoning
2678,43.232942,123.940518999999,POINT (123.940518999999 43.232942),,Liaoning
2680,43.1881479999999,124.271347,POINT (124.271347 43.1881479999999),,Liaoning
1773,43.0910799999999,124.70307,POINT (124.70307 43.0910799999999),Siping City,Jilin
2497,42.926735,125.001396,POINT (125.001396 42.926735),,Jilin
2128,42.9054,125.12916,POINT (125.12916 42.9054),Longshan District,Jilin
2747,42.799992,125.288506,POINT (125.288506 42.799992),Liaoyuan City,Jilin
74,42.6540899999999,125.546049999999,POINT (125.546049999999 42.6540899999999),Liaoyuan City,Jilin
1340,42.5348899999999,125.68482,POINT (125.68482 42.5348899999999),Meihekou,Jilin
1307,42.295831,125.771319,POINT (125.771319 42.295831),Liuhe,Jilin
2386,42.1815199999999,125.90306,POINT (125.90306 42.1815199999999),,Jilin
213,42.1433299999999,125.882375,POINT (125.882375 42.1433299999999),,Jilin
40,42.05579,125.75984,POINT (125.75984 42.05579),,Jilin
2736,41.9578259999999,125.726174,POINT (125.726174 41.9578259999999),,Jilin
2543,41.8677769999999,125.728998,POINT (125.728998 41.8677769999999),,Jilin
2537,41.788946,125.830166,POINT (125.830166 41.788946),,Jilin
2599,44.02259,125.555763,POINT (125.555763 44.02259),Changchun City,Jilin
2787,44.1479539999999,125.921173999999,POINT (125.921173999999 44.1479539999999),Changchun City,Jilin
2740,44.110782,126.056151,POINT (126.056151 44.110782),,Jilin
893,44.0703049999999,126.08614,POINT (126.08614 44.0703049999999),,Jilin
369,44.193063,126.619341,POINT (126.619341 44.193063),,Jilin
85,44.36679,126.89431,POINT (126.89431 44.36679),Shulan,Jilin
2769,44.5747429999999,126.819250999999,POINT (126.819250999999 44.5747429999999),Yushu City,Jilin
2775,44.6997539999999,126.734112,POINT (126.734112 44.6997539999999),,Jilin
2577,43.9966459999999,126.231892,POINT (126.231892 43.9966459999999),,Jilin
31,39.95046,116.12072,POINT (116.12072 39.95046),Shijingshan District,Beijing
1113,39.9714099999999,116.059209999999,POINT (116.059209999999 39.9714099999999),Mentougou District,
2008,39.9876399999999,115.98665,POINT (115.98665 39.9876399999999),Mentougou District,
2326,40.03508,115.89764,POINT (115.89764 40.03508),Mentougou District,
71,40.48675,115.27982,POINT (115.27982 40.48675),Xiahuayuan District,Hebei
1463,40.67313,114.92475,POINT (114.92475 40.67313),Zhangjiakou City,Hebei
776,40.2521759999999,115.589868,POINT (115.589868 40.2521759999999),Zhangjiakou City,Hebei
1165,40.1724999999999,115.63934,POINT (115.63934 40.1724999999999),Zhangjiakou City,Hebei
1485,40.0988499999999,115.72068,POINT (115.72068 40.0988499999999),Mentougou District,Beijing
1686,40.0516,115.80087,POINT (115.80087 40.0516),Mentougou District,Beijing
2167,36.6030799999999,114.476299999999,POINT (114.476299999999 36.6030799999999),,Hebei
1467,36.8551599999999,114.50332,POINT (114.50332 36.8551599999999),Shahe City,Hebei
2164,37.0696799999999,114.49235,POINT (114.49235 37.0696799999999),Xingtai City,Hebei
1771,38.06609,114.46575,POINT (114.46575 38.06609),Xinhua District,Hebei
1196,38.0208799999999,115.03213,POINT (115.03213 38.0208799999999),Shijiazhuang City,Hebei
2123,37.9114239999999,115.221895,POINT (115.221895 37.9114239999999),Shijiazhuang City,Hebei
368,37.7954599999999,115.49262,POINT (115.49262 37.7954599999999),Hengshui City,Hebei
2471,37.618001,116.029228,POINT (116.029228 37.618001),Jing County,Hebei
1979,39.212426,117.739084,POINT (117.739084 39.212426),Binhai New Area,Tianjin
2291,37.85667,113.592299999999,POINT (113.592299999999 37.85667),Yangquan,Shanxi
219,38.03482,114.137379999999,POINT (114.137379999999 38.03482),Jingxing County,Hebei
2024,38.0272599999999,114.83238,POINT (114.83238 38.0272599999999),Gaocheng District,Hebei
432,37.175589,115.701687,POINT (115.701687 37.175589),Nangong City,Hebei
2623,36.9283739999999,115.71387,POINT (115.71387 36.9283739999999),Xingtai City,Hebei
1563,39.9823,116.33932,POINT (116.33932 39.9823),Haidian District,
1568,40.0416499999999,116.31509,POINT (116.31509 40.0416499999999),Haidian District,
1179,40.1891499999999,116.19459,POINT (116.19459 40.1891499999999),Changping District,
778,40.2260399999999,116.31401,POINT (116.31401 40.2260399999999),Changping District,
392,40.33977,116.57284,POINT (116.57284 40.33977),Huairou District,
1515,40.7066999999999,117.14552,POINT (117.14552 40.7066999999999),Luanping County,Hebei
430,40.7677699999999,117.06844,POINT (117.06844 40.7677699999999),Luanping County,Hebei
214,40.8939099999999,117.066019999999,POINT (117.066019999999 40.8939099999999),Luanping County,Hebei
190,40.8865199999999,117.15139,POINT (117.15139 40.8865199999999),Luanping County,Hebei
1010,40.99949,117.48238,POINT (117.48238 40.99949),Luanping County,Hebei
2209,41.05964,117.516949999999,POINT (117.516949999999 41.05964),Luanping County,Hebei
1605,41.079517,117.543959,POINT (117.543959 41.079517),Luanping County,Hebei
1337,41.10848,117.62594,POINT (117.62594 41.10848),Luanping County,Hebei
1724,41.1589299999999,117.672079999999,POINT (117.672079999999 41.1589299999999),Luanping County,Hebei
2115,41.2336499999999,117.69645,POINT (117.69645 41.2336499999999),Chengde City,Hebei
2784,40.9898219999999,117.415251,POINT (117.415251 40.9898219999999),Luanping County,Hebei
2572,40.8622919999999,116.996638,POINT (116.996638 40.8622919999999),Luanping County,Hebei
2695,40.131391,116.271648,POINT (116.271648 40.131391),Changping District,
2405,37.60495,114.597399999999,POINT (114.597399999999 37.60495),Gaoyi,Hebei
979,36.656677,114.291877,POINT (114.291877 36.656677),,Hebei
1371,36.6770799999999,114.2121,POINT (114.2121 36.6770799999999),,Hebei
1795,36.59751,114.11815,POINT (114.11815 36.59751),,Hebei
2294,36.737808,113.902883,POINT (113.902883 36.737808),,Hebei
218,36.60521,113.72248,POINT (113.72248 36.60521),Shexian County,Hebei
1541,36.5849499999999,113.691419999999,POINT (113.691419999999 36.5849499999999),Shexian County,Hebei
1125,36.63729,113.98244,POINT (113.98244 36.63729),,Hebei
409,36.65187,114.155,POINT (114.155 36.65187),,Hebei
1003,37.1350699999999,112.07277,POINT (112.07277 37.1350699999999),Jinzhong City,Shanxi
2288,38.0580599999999,112.68206,POINT (112.68206 38.0580599999999),Taiyuan City,Shanxi
105,35.4271499999999,111.31227,POINT (111.31227 35.4271499999999),Wenxi,Shanxi
2274,35.3561899999999,111.21679,POINT (111.21679 35.3561899999999),Wenxi,Shanxi
934,40.06799,113.219928,POINT (113.219928 40.06799),Datong City,Shanxi
1809,39.35981,112.55141,POINT (112.55141 39.35981),,Shanxi
2089,38.303725,112.701402,POINT (112.701402 38.303725),,Shanxi
940,38.2746089999999,112.596753,POINT (112.596753 38.2746089999999),,Shanxi
2397,38.16861,112.6926,POINT (112.6926 38.16861),,Shanxi
690,37.91799,112.56605,POINT (112.56605 37.91799),Taiyuan City,Shanxi
1565,37.55744,112.31375,POINT (112.31375 37.55744),Taiyuan City,Shanxi
226,37.520985,112.195869,POINT (112.195869 37.520985),Jiaocheng,Shanxi
1110,37.43963,112.07763,POINT (112.07763 37.43963),Wenshui County,Shanxi
1445,37.3728029999999,111.917171,POINT (111.917171 37.3728029999999),Fenyang City,Shanxi
518,37.56839,111.137829999999,POINT (111.137829999999 37.56839),,Shanxi
1301,37.44391,110.931749999999,POINT (110.931749999999 37.44391),Liulin,Shanxi
188,43.65749,111.987889999999,POINT (111.987889999999 43.65749),Erenhot City,Inner Mongolia
2468,43.2340599999999,112.35625,POINT (112.35625 43.2340599999999),Erenhot City,Inner Mongolia
2104,42.74989,112.666659999999,POINT (112.666659999999 42.74989),Sonid Right Banner,Inner Mongolia
1234,42.39753,112.89905,POINT (112.89905 42.39753),,Inner Mongolia
594,41.8511799999999,113.14509,POINT (113.14509 41.8511799999999),Ulanqab City,Inner Mongolia
1744,41.45577,113.18486,POINT (113.18486 41.45577),Ulanqab City,Inner Mongolia
1423,34.16931,112.82776,POINT (112.82776 34.16931),Ruzhou City,Henan
449,32.99857,112.512069999999,POINT (112.512069999999 32.99857),Wolong District,Henan
427,33.4398899999999,112.74077,POINT (112.74077 33.4398899999999),Nanzhao County,Henan
2410,33.7485,112.90338,POINT (112.90338 33.7485),Pingdingshan City,Henan
947,33.855018,113.046732,POINT (113.046732 33.855018),Pingdingshan City,Henan
1507,34.696769,112.486168,POINT (112.486168 34.696769),Chanhe Hui District,Henan
2162,32.6831699999999,112.07064,POINT (112.07064 32.6831699999999),Dengzhou City,Henan
792,30.65822,111.37053,POINT (111.37053 30.65822),Wujiagang District,Hubei
2273,30.6260489999999,110.856776,POINT (110.856776 30.6260489999999),Changyang Tujia Autonomous County,Hubei
899,30.66283,110.35782,POINT (110.35782 30.66283),Badong County,Hubei
989,30.56745,109.7279,POINT (109.7279 30.56745),Jianshi,Hubei
1057,30.3489399999999,109.485069999999,POINT (109.485069999999 30.3489399999999),,Hubei
766,32.7126499999999,109.017309999999,POINT (109.017309999999 32.7126499999999),Ankang City,Shaanxi
1419,32.87669,108.506379999999,POINT (108.506379999999 32.87669),Ankang City,Shaanxi
1780,33.03829,108.24843,POINT (108.24843 33.03829),Shiquan County,Shaanxi
2051,32.99439,107.76102,POINT (107.76102 32.99439),Xixiang,Shaanxi
603,33.13832,107.323809999999,POINT (107.323809999999 33.13832),Bowang Subdistrict,Shaanxi
1415,33.09225,107.03027,POINT (107.03027 33.09225),Beiguan Subdistrict,Shaanxi
1199,33.112918,107.465746,POINT (107.465746 33.112918),,Shaanxi
41,33.09919,107.96369,POINT (107.96369 33.09919),,Shaanxi
1980,33.03951,108.05503,POINT (108.05503 33.03951),,Shaanxi
1897,33.03181,108.154445999999,POINT (108.154445999999 33.03181),Shiquan County,Shaanxi
2399,32.91275,108.41785,POINT (108.41785 32.91275),Ankang City,Shaanxi
1545,32.82799,108.594539999999,POINT (108.594539999999 32.82799),Ankang City,Shaanxi
101,37.45566,118.472359999999,POINT (118.472359999999 37.45566),Dongying District,Shandong
456,37.1358099999999,118.14261,POINT (118.14261 37.1358099999999),Boxing,Shandong
2018,36.39522,120.18398,POINT (120.18398 36.39522),Jimo,Shandong
1994,36.8097199999999,120.51803,POINT (120.51803 36.8097199999999),Laixi City,Shandong
1540,37.08111,120.99736,POINT (120.99736 37.08111),Haiyang City,Shandong
1320,37.1946289999999,121.148535999999,POINT (121.148535999999 37.1946289999999),Qixia City,Shandong
1641,37.54883,121.3822,POINT (121.3822 37.54883),Zhifu District,Shandong
1932,36.29806,119.99926,POINT (119.99926 36.29806),Jiaozhou City,Shandong
2083,36.06307,119.39,POINT (119.39 36.06307),Zhucheng City,Shandong
211,35.8054899999999,119.207269999999,POINT (119.207269999999 35.8054899999999),Wulian County,Shandong
1991,35.57997,118.83687,POINT (118.83687 35.57997),Ju County,Shandong
1450,35.6439299999999,118.72722,POINT (118.72722 35.6439299999999),Linyi City,Shandong
1449,35.48767,118.619879999999,POINT (118.619879999999 35.48767),Linyi City,Shandong
2342,36.1688869999999,120.375084,POINT (120.375084 36.1688869999999),Licang District,Shandong
194,25.9758299999999,115.41638,POINT (115.41638 25.9758299999999),Yudu,Jiangxi
2069,25.82695,115.785839999999,POINT (115.785839999999 25.82695),,Jiangxi
1691,25.8633999999999,116.05551,POINT (116.05551 25.8633999999999),Ruijin,Jiangxi
2262,25.82883,116.344269999999,POINT (116.344269999999 25.82883),Longyan City,Fujian
347,25.52429,116.67916,POINT (116.67916 25.52429),Longyan City,Fujian
53,25.1826399999999,116.73772,POINT (116.73772 25.1826399999999),Longyan City,Fujian
2476,25.0963999999999,117.00653,POINT (117.00653 25.0963999999999),Longyan City,Fujian
2325,25.24883,117.15279,POINT (117.15279 25.24883),Longyan City,Fujian
598,25.27043,117.19336,POINT (117.19336 25.27043),Longyan City,Fujian
1958,25.3118839999999,117.280058,POINT (117.280058 25.3118839999999),Longyan City,Fujian
1615,25.3068899999999,117.41934,POINT (117.41934 25.3068899999999),Zhangping City,Fujian
1316,25.329235,110.301969,POINT (110.301969 25.329235),Diecai District,Guangxi
1317,25.261163,110.28411,POINT (110.28411 25.261163),Guilin,Guangxi
2430,24.47978,109.746,POINT (109.746 24.47978),Luzhai,Guangxi
2093,23.0989299999999,109.61318,POINT (109.61318 23.0989299999999),Guigang,Guangxi
323,22.73777,109.90672,POINT (109.90672 22.73777),Xingye,Guangxi
1670,22.59728,110.15648,POINT (110.15648 22.59728),Yuzhou District,Guangxi
2311,22.30988,110.25807,POINT (110.25807 22.30988),,Guangxi
1107,21.9515999999999,110.19883,POINT (110.19883 21.9515999999999),,Guangxi
1478,21.69633,110.301779999999,POINT (110.301779999999 21.69633),Zhanjiang City,Guangdong Province
385,21.6528099999999,110.65176,POINT (110.65176 21.6528099999999),Maoming City,Guangdong Province
1971,21.68089,110.84799,POINT (110.84799 21.68089),Maonan District,Guangdong Province
2596,22.75776,108.185925,POINT (108.185925 22.75776),Nanning,Guangxi
2595,22.776636,108.106036,POINT (108.106036 22.776636),Nanning,Guangxi
1083,22.62798,107.91937,POINT (107.91937 22.62798),,Guangxi
2677,22.55986,107.79924,POINT (107.79924 22.55986),,Guangxi
2676,22.520572,107.588893,POINT (107.588893 22.520572),,Guangxi
2608,22.451339,107.508134,POINT (107.508134 22.451339),,Guangxi
888,22.40387,107.35816,POINT (107.35816 22.40387),Jiangzhou,Guangxi
2731,22.309273,107.186826999999,POINT (107.186826999999 22.309273),,Guangxi
2814,22.222871,107.194523,POINT (107.194523 22.222871),,Guangxi
2630,22.189301,107.122504,POINT (107.122504 22.189301),,Guangxi
748,22.1589199999999,107.0639,POINT (107.0639 22.1589199999999),Ningming,Guangxi
2760,22.12458,106.910039,POINT (106.910039 22.12458),,Guangxi
358,22.08003,106.74262,POINT (106.74262 22.08003),,Guangxi
2200,24.69949,108.065079999999,POINT (108.065079999999 24.69949),Jinchengjiang,Guangxi
791,24.4789099999999,108.627309999999,POINT (108.627309999999 24.4789099999999),Yizhou District,Guangxi
982,21.61484,110.29679,POINT (110.29679 21.61484),Zhanjiang City,Guangdong Province
2157,21.39827,110.26693,POINT (110.26693 21.39827),Zhanjiang City,Guangdong Province
1586,21.1881449999999,110.387702,POINT (110.387702 21.1881449999999),Xiashan District,Guangdong Province
2192,29.607603,106.550847,POINT (106.550847 29.607603),Yubei District,Chongqing
2254,29.79007,106.9659,POINT (106.9659 29.79007),,Chongqing
1547,29.6999299999999,107.33382,POINT (107.33382 29.6999299999999),Fuling,Chongqing
1800,29.637094,107.409698,POINT (107.409698 29.637094),,Chongqing
1735,29.58982,107.447742,POINT (107.447742 29.58982),,Chongqing
1730,29.516334,107.488893,POINT (107.488893 29.516334),,Chongqing
1746,29.408387,107.585589,POINT (107.585589 29.408387),Wulong District,Chongqing
2404,29.381114,108.073711,POINT (108.073711 29.381114),Pengshui Miao and Tujia Autonomous County,Chongqing
1021,29.36146,108.23584,POINT (108.23584 29.36146),Pengshui Miao and Tujia Autonomous County,Chongqing
263,29.4391959999999,108.317868,POINT (108.317868 29.4391959999999),Pengshui Miao and Tujia Autonomous County,Chongqing
2173,29.4980459999999,108.363054,POINT (108.363054 29.4980459999999),Pengshui Miao and Tujia Autonomous County,Chongqing
919,29.482942,108.540695,POINT (108.540695 29.482942),,Chongqing
1313,29.475694,108.736796,POINT (108.736796 29.475694),,Chongqing
2467,29.44347,108.791349999999,POINT (108.791349999999 29.44347),,Chongqing
2409,29.224817,108.835455999999,POINT (108.835455999999 29.224817),,Chongqing
2269,29.087236,108.949269,POINT (108.949269 29.087236),,Chongqing
1489,28.977435,108.943332,POINT (108.943332 28.977435),,Chongqing
2187,28.8083199999999,108.96137,POINT (108.96137 28.8083199999999),,Chongqing
2480,28.598621,108.9976,POINT (108.9976 28.598621),,Chongqing
1828,28.4449399999999,109.01578,POINT (109.01578 28.4449399999999),Xiushan,Chongqing
112,29.301786,107.849012,POINT (107.849012 29.301786),Wulong District,Chongqing
1378,29.32607,107.77634,POINT (107.77634 29.32607),Wulong District,Chongqing
1652,29.55262,103.52453,POINT (103.52453 29.55262),,Sichuan
1470,29.41841,103.544256,POINT (103.544256 29.41841),Shawan,Sichuan
2122,29.319403,103.567721,POINT (103.567721 29.319403),,Sichuan
364,29.2739189999999,103.532373,POINT (103.532373 29.2739189999999),,Sichuan
238,29.3121599999999,103.460849999999,POINT (103.460849999999 29.3121599999999),,Sichuan
1252,29.3041799999999,103.39964,POINT (103.39964 29.3041799999999),,Sichuan
318,29.305574,103.321611,POINT (103.321611 29.305574),,Sichuan
884,29.25769,103.27759,POINT (103.27759 29.25769),Ebian,Sichuan
1290,29.2588599999999,103.18552,POINT (103.18552 29.2588599999999),,Sichuan
2198,29.2883099999999,103.10652,POINT (103.10652 29.2883099999999),,Sichuan
321,29.28863,103.02722,POINT (103.02722 29.28863),,Sichuan
1418,29.2326699999999,102.90572,POINT (102.90572 29.2326699999999),,Sichuan
860,29.2028199999999,102.86197,POINT (102.86197 29.2028199999999),,Sichuan
1964,29.14591,102.87281,POINT (102.87281 29.14591),,Sichuan
351,29.08735,102.82366,POINT (102.82366 29.08735),,Sichuan
602,29.02683,102.79927,POINT (102.79927 29.02683),,Sichuan
433,28.93478,102.72777,POINT (102.72777 28.93478),,Sichuan
2302,28.8879069999999,102.679435,POINT (102.679435 28.8879069999999),,Sichuan
1725,28.80993,102.6032,POINT (102.6032 28.80993),,Sichuan
1739,28.7554599999999,102.61045,POINT (102.61045 28.7554599999999),Yuexi County,Sichuan
2116,28.7370899999999,102.60348,POINT (102.60348 28.7370899999999),Yuexi County,Sichuan
2220,28.6901699999999,102.59894,POINT (102.59894 28.6901699999999),Yuexi County,Sichuan
68,28.6310199999999,102.626949999999,POINT (102.626949999999 28.6310199999999),Yuexi County,Sichuan
1093,28.57401,102.636399999999,POINT (102.636399999999 28.57401),Yuexi County,Sichuan
1206,28.5145599999999,102.65121,POINT (102.65121 28.5145599999999),Yuexi County,Sichuan
1702,28.97888,102.76136,POINT (102.76136 28.97888),,Sichuan
2194,29.5497699999999,106.547529999999,POINT (106.547529999999 29.5497699999999),Yuzhong District,Chongqing
1975,29.4272479999999,106.501771,POINT (106.501771 29.4272479999999),,Chongqing
834,29.2642099999999,106.43873,POINT (106.43873 29.2642099999999),,Chongqing
12,29.2310899999999,106.43633,POINT (106.43633 29.2310899999999),,Chongqing
1385,29.15512,106.47026,POINT (106.47026 29.15512),,Chongqing
615,29.0727499999999,106.51245,POINT (106.51245 29.0727499999999),,Chongqing
1855,29.01753,106.66386,POINT (106.66386 29.01753),,Chongqing
38,28.94745,106.70234,POINT (106.70234 28.94745),Qijiang,Chongqing
2241,28.7870899999999,106.67562,POINT (106.67562 28.7870899999999),,Chongqing
2114,28.74632,106.711519999999,POINT (106.711519999999 28.74632),,Chongqing
1784,28.6698899999999,106.8217,POINT (106.8217 28.6698899999999),,Chongqing
1229,28.634664,106.868747,POINT (106.868747 28.634664),,Guizhou
1259,28.55403,106.87342,POINT (106.87342 28.55403),,Guizhou
21,28.490976,106.837819,POINT (106.837819 28.490976),,Guizhou
2014,28.43309,106.84363,POINT (106.84363 28.43309),,Guizhou
697,28.3930399999999,106.85308,POINT (106.85308 28.3930399999999),,Guizhou
179,28.35934,106.84562,POINT (106.84562 28.35934),Zunyi,Guizhou
648,28.319711,106.844658999999,POINT (106.844658999999 28.319711),,Guizhou
1126,28.29186,106.8417,POINT (106.8417 28.29186),,Guizhou
276,28.191094,106.839866,POINT (106.839866 28.191094),Tongzi,Guizhou
1326,28.1304699999999,106.83207,POINT (106.83207 28.1304699999999),Tongzi,Guizhou
1873,28.06513,106.8507,POINT (106.8507 28.06513),Tongzi,Guizhou
722,28.0336099999999,106.89995,POINT (106.89995 28.0336099999999),Huichuan,Guizhou
1413,27.9685799999999,106.92313,POINT (106.92313 27.9685799999999),Huichuan,Guizhou
1260,27.91532,106.957629999999,POINT (106.957629999999 27.91532),Huichuan,Guizhou
2160,27.7029099999999,106.948089999999,POINT (106.948089999999 27.7029099999999),Honghuagang,Guizhou
2193,29.49585,106.539376,POINT (106.539376 29.49585),Jiulongpo District,Chongqing
342,29.5880499999999,105.03756,POINT (105.03756 29.5880499999999),,Sichuan
341,29.541028,104.99028,POINT (104.99028 29.541028),,Sichuan
633,29.41457,104.85053,POINT (104.85053 29.41457),,Sichuan
1935,29.35604,104.79106,POINT (104.79106 29.35604),Da'an,Sichuan
265,29.2170999999999,104.70019,POINT (104.70019 29.2170999999999),,Sichuan
732,29.1389099999999,104.67877,POINT (104.67877 29.1389099999999),,Sichuan
1678,29.06885,104.67838,POINT (104.67838 29.06885),,Sichuan
1106,28.97926,104.66392,POINT (104.66392 28.97926),,Sichuan
2,28.88858,104.68845,POINT (104.68845 28.88858),,Sichuan
790,28.75141,104.600489999999,POINT (104.600489999999 28.75141),,Sichuan
789,28.704177,104.546628,POINT (104.546628 28.704177),,Sichuan
1388,28.6069199999999,104.4158,POINT (104.4158 28.6069199999999),,Sichuan
1356,28.556808,104.362064,POINT (104.362064 28.556808),,Sichuan
832,28.4979869999999,104.265071,POINT (104.265071 28.4979869999999),Zhaotong City,Yunnan
2225,28.514782,104.277613,POINT (104.277613 28.514782),,Sichuan
1608,28.314955,104.272516999999,POINT (104.272516999999 28.314955),Zhaotong City,Yunnan
1204,28.236716,104.195162,POINT (104.195162 28.236716),,Yunnan
126,28.1710299999999,104.229198,POINT (104.229198 28.1710299999999),Zhaotong City,Yunnan
1755,28.077766,104.242375,POINT (104.242375 28.077766),Zhaotong City,Yunnan
1756,27.9958409999999,104.214168,POINT (104.214168 27.9958409999999),Zhaotong City,Yunnan
2088,28.0249759999999,104.131286,POINT (104.131286 28.0249759999999),Zhaotong City,Yunnan
1465,28.0114209999999,104.050914,POINT (104.050914 28.0114209999999),Zhaotong City,Yunnan
833,27.980374,103.97126,POINT (103.97126 27.980374),Zhaotong City,Yunnan
872,27.83752,103.870786,POINT (103.870786 27.83752),Zhaotong City,Yunnan
622,27.83331,103.97897,POINT (103.97897 27.83331),Zhaotong City,Yunnan
1215,27.6992219999999,103.98124,POINT (103.98124 27.6992219999999),Daguan,Yunnan
1956,27.6917529999999,103.990797,POINT (103.990797 27.6917529999999),Daguan,Yunnan
2161,27.6060529999999,104.018043,POINT (104.018043 27.6060529999999),,Yunnan
1706,27.5521029999999,103.963176,POINT (103.963176 27.5521029999999),Zhaotong City,Yunnan
1019,27.5057599999999,103.92296,POINT (103.92296 27.5057599999999),Zhaotong City,Yunnan
1018,27.520413,103.925015,POINT (103.925015 27.520413),Zhaotong City,Yunnan
189,27.480601,103.83986,POINT (103.83986 27.480601),Zhaotong City,Yunnan
1190,27.4420639999999,103.793651,POINT (103.793651 27.4420639999999),Zhaotong City,Yunnan
1192,27.3854,103.79161,POINT (103.79161 27.3854),Zhaotong City,Yunnan
1668,27.2396199999999,108.93478,POINT (108.93478 27.2396199999999),Yuping,Guizhou
1904,27.17244,108.82517,POINT (108.82517 27.17244),,Guizhou
2348,27.119966,108.735225,POINT (108.735225 27.119966),,Guizhou
2243,27.0344799999999,108.41014,POINT (108.41014 27.0344799999999),Zhenyuan,Guizhou
1157,26.9170699999999,108.13453,POINT (108.13453 26.9170699999999),,Guizhou
2446,26.9426489999999,108.182157,POINT (108.182157 26.9426489999999),,Guizhou
800,26.8124,108.044259999999,POINT (108.044259999999 26.8124),,Guizhou
373,26.7310899999999,108.00961,POINT (108.00961 26.7310899999999),,Guizhou
1324,26.6819899999999,107.997519999999,POINT (107.997519999999 26.6819899999999),,Guizhou
360,26.60284,107.97644,POINT (107.97644 26.60284),Kaili,Guizhou
2438,26.495621,107.593033,POINT (107.593033 26.495621),,Guizhou
1822,26.6249399999999,107.536469999999,POINT (107.536469999999 26.6249399999999),,Guizhou
2092,26.58162,107.22843,POINT (107.22843 26.58162),Guiding,Guizhou
2096,26.55685,106.7031,POINT (106.7031 26.55685),Nanming,Guizhou
2394,26.3867599999999,106.34557,POINT (106.34557 26.3867599999999),Pingba,Guizhou
1135,26.3874999999999,106.2615,POINT (106.2615 26.3874999999999),Pingba,Guizhou
771,26.22926,105.9428,POINT (105.9428 26.22926),Anshun,Guizhou
384,26.20898,105.61963,POINT (105.61963 26.20898),Anshun,Guizhou
306,26.2258299999999,105.46473,POINT (105.46473 26.2258299999999),Liupanshui,Guizhou
320,26.28398,105.22372,POINT (105.22372 26.28398),Liupanshui,Guizhou
1602,26.54053,105.03436,POINT (105.03436 26.54053),Shuicheng,Guizhou
308,26.5910599999999,104.85212,POINT (104.85212 26.5910599999999),Zhongshan,Guizhou
1985,26.87967,104.25507,POINT (104.25507 26.87967),Weining,Guizhou
2145,27.08117,103.8869,POINT (103.8869 27.08117),,Guizhou
1950,27.265851,103.848057,POINT (103.848057 27.265851),,Guizhou
1191,27.340855,103.817173999999,POINT (103.817173999999 27.340855),Zhaotong City,Yunnan
1977,26.49229,105.10927,POINT (105.10927 26.49229),Shuicheng,Guizhou
164,43.76885,87.59157,POINT (87.59157 43.76885),Ürümqi,Xinjiang
162,43.869911,87.4215039999999,POINT (87.4215039999999 43.869911),Ürümqi,Xinjiang
1684,44.2492799999999,86.1963099999999,POINT (86.1963099999999 44.2492799999999),,Xinjiang
1779,44.2697399999999,86.06323,POINT (86.06323 44.2697399999999),Corps 152th Regiment,Xinjiang
1469,44.3262799999999,85.61959,POINT (85.61959 44.3262799999999),Shawan,Xinjiang
707,44.4037799999999,84.90062,POINT (84.90062 44.4037799999999),,Xinjiang
1850,44.63633,83.02518,POINT (83.02518 44.63633),Jinghe,Xinjiang
454,44.9321899999999,82.6508599999999,POINT (82.6508599999999 44.9321899999999),Shuanghe City,Xinjiang
2304,45.17103,82.5729999999999,POINT (82.5729999999999 45.17103),Alashankou City,Xinjiang
1849,44.606073,82.920586,POINT (82.920586 44.606073),Jinghe,Xinjiang
859,43.9667999999999,82.04918,POINT (82.04918 43.9667999999999),,Xinjiang
906,43.899462,81.795207,POINT (81.795207 43.899462),,Xinjiang
242,43.9549799999999,81.50239,POINT (81.50239 43.9549799999999),Yining,Xinjiang
243,43.96757,81.2782299999999,POINT (81.2782299999999 43.96757),Yining City,Xinjiang
2333,44.1911869999999,80.421149,POINT (80.421149 44.1911869999999),Korgas City,Xinjiang
1770,44.17765,129.337619999999,POINT (129.337619999999 44.17765),,Heilongjiang
311,44.26746,129.412039999999,POINT (129.412039999999 44.26746),Ning'an,Heilongjiang
1578,44.4354099999999,129.50163,POINT (129.50163 44.4354099999999),,Heilongjiang
1537,44.5405599999999,129.55577,POINT (129.55577 44.5405599999999),,Heilongjiang
458,44.5530699999999,129.56553,POINT (129.56553 44.5530699999999),,Heilongjiang
927,44.598733,127.180642,POINT (127.180642 44.598733),,Jilin
1242,44.8190999999999,127.19838,POINT (127.19838 44.8190999999999),Harbin,Heilongjiang
760,45.05243,127.06782,POINT (127.06782 45.05243),Harbin,Heilongjiang
1929,45.17005,126.99841,POINT (126.99841 45.17005),Harbin,Heilongjiang
1657,45.3507,126.73669,POINT (126.73669 45.3507),Harbin,Heilongjiang
526,45.46188,126.67341,POINT (126.67341 45.46188),,Heilongjiang
847,29.760438,116.011671,POINT (116.011671 29.760438),Huanggang,Hubei
730,29.911366,115.898048,POINT (115.898048 29.911366),,Hubei
2022,29.883597,115.819663,POINT (115.819663 29.883597),,Hubei
1479,41.394582,117.726831,POINT (117.726831 41.394582),Chengde City,Hebei
1437,41.445107,117.722052,POINT (117.722052 41.445107),,Hebei
1461,41.50515,117.74699,POINT (117.74699 41.50515),Chengde City,Hebei
1002,41.58406,117.75695,POINT (117.75695 41.58406),Chengde City,Hebei
83,41.6591379999999,117.817683,POINT (117.817683 41.6591379999999),,Hebei
975,41.71721,117.86539,POINT (117.86539 41.71721),Chengde City,Hebei
1934,41.8781189999999,117.939024,POINT (117.939024 41.8781189999999),Chengde City,Hebei
956,41.8781299999999,117.93902,POINT (117.93902 41.8781299999999),Chengde City,Hebei
2228,41.9058259999999,118.041004,POINT (118.041004 41.9058259999999),Chengde City,Hebei
2442,41.9684809999999,118.205552,POINT (118.205552 41.9684809999999),Chengde City,Hebei
201,42.09208,118.165719999999,POINT (118.165719999999 42.09208),,Inner Mongolia
1245,42.1420699999999,118.24827,POINT (118.24827 42.1420699999999),,Inner Mongolia
110,42.2126299999999,118.36296,POINT (118.36296 42.2126299999999),,Inner Mongolia
1658,42.2181399999999,118.4508,POINT (118.4508 42.2181399999999),,Inner Mongolia
576,42.2265299999999,118.556839999999,POINT (118.556839999999 42.2265299999999),,Inner Mongolia
32,42.29652,118.67836,POINT (118.67836 42.29652),,Inner Mongolia
1214,42.3382769999999,118.778515,POINT (118.778515 42.3382769999999),,Inner Mongolia
391,42.3167649999999,118.854894,POINT (118.854894 42.3167649999999),,Inner Mongolia
2109,42.28482,118.91571,POINT (118.91571 42.28482),,Inner Mongolia
217,37.99228,114.01758,POINT (114.01758 37.99228),Jingxing County,Hebei
435,37.98968,113.93643,POINT (113.93643 37.98968),Jingxing County,Hebei
725,37.96273,113.88059,POINT (113.88059 37.96273),,Shanxi
828,37.8822699999999,113.19013,POINT (113.19013 37.8822699999999),Jinzhong City,Shanxi
1944,37.73639,113.05319,POINT (113.05319 37.73639),Jinzhong City,Shanxi
2045,35.88024,111.44221,POINT (111.44221 35.88024),Xiangfen,Shanxi
743,40.22701,113.331419999999,POINT (113.331419999999 40.22701),Datong City,Shanxi
604,40.359732,113.278109,POINT (113.278109 40.359732),Datong City,Shanxi
1130,40.5315299999999,113.23084,POINT (113.23084 40.5315299999999),Ulanqab City,Inner Mongolia
1871,40.68319,113.21227,POINT (113.21227 40.68319),Ulanqab City,Inner Mongolia
595,40.78584,113.20541,POINT (113.20541 40.78584),Ulanqab City,Inner Mongolia
1965,40.9001499999999,113.113699999999,POINT (113.113699999999 40.9001499999999),Ulanqab City,Inner Mongolia
294,40.9528299999999,112.84832,POINT (112.84832 40.9528299999999),Zhuozi County,Inner Mongolia
402,40.90493,112.81841,POINT (112.81841 40.90493),Zhuozi County,Inner Mongolia
2379,40.9069399999999,112.705969999999,POINT (112.705969999999 40.9069399999999),Zhuozi County,Inner Mongolia
711,40.9201699999999,112.62067,POINT (112.62067 40.9201699999999),Zhuozi County,Inner Mongolia
416,40.902377,112.561949,POINT (112.561949 40.902377),Zhuozi County,Inner Mongolia
1825,40.96777,112.462459999999,POINT (112.462459999999 40.96777),Zhuozi County,Inner Mongolia
43,40.9927399999999,112.29613,POINT (112.29613 40.9927399999999),Zhuozi County,Inner Mongolia
1159,40.9756069999999,112.152313,POINT (112.152313 40.9756069999999),Zhuozi County,Inner Mongolia
1383,40.89602,112.09891,POINT (112.09891 40.89602),Hohhot City,Inner Mongolia
2320,40.65934,110.93245,POINT (110.93245 40.65934),Hohhot City,Inner Mongolia
1911,40.5839,110.74527,POINT (110.74527 40.5839),Baotou City,Inner Mongolia
302,40.5585719999999,110.366921,POINT (110.366921 40.5585719999999),Baotou City,Inner Mongolia
80,40.556845,110.194833,POINT (110.194833 40.556845),Baotou City,Inner Mongolia
2318,40.88157,112.03491,POINT (112.03491 40.88157),Hohhot City,Inner Mongolia
1674,26.475821,104.816912,POINT (104.816912 26.475821),Shuicheng,Guizhou
1747,26.438188,104.806839999999,POINT (104.806839999999 26.438188),Liupanshui,Guizhou
2183,26.358362,104.697776,POINT (104.697776 26.358362),Shuicheng,Guizhou
480,26.31184,104.80506,POINT (104.80506 26.31184),Shuicheng,Guizhou
2006,26.1963779999999,104.719791,POINT (104.719791 26.1963779999999),Shuicheng,Guizhou
1976,26.230823,104.747187,POINT (104.747187 26.230823),,Guizhou
30,26.151526,104.724434,POINT (104.724434 26.151526),Shuicheng,Guizhou
2331,26.097797,104.66855,POINT (104.66855 26.097797),Liupanshui,Guizhou
1269,26.03163,104.62285,POINT (104.62285 26.03163),Liupanshui,Guizhou
1292,26.0009799999999,104.50335,POINT (104.50335 26.0009799999999),Liupanshui,Guizhou
1216,25.92529,104.49912,POINT (104.49912 25.92529),Liupanshui,Guizhou
1759,25.89021,104.50221,POINT (104.50221 25.89021),Liupanshui,Guizhou
939,25.83541,104.50613,POINT (104.50613 25.83541),Liupanshui,Guizhou
1951,25.7849499999999,104.48276,POINT (104.48276 25.7849499999999),Liupanshui,Guizhou
1466,25.7412239999999,104.470847,POINT (104.470847 25.7412239999999),Liupanshui,Guizhou
1868,25.71463,104.46431,POINT (104.46431 25.71463),Liupanshui,Guizhou
920,25.652175,104.347954,POINT (104.347954 25.652175),Liupanshui,Guizhou
821,25.6879269999999,104.276839,POINT (104.276839 25.6879269999999),,Yunnan
1906,25.6898829999999,104.235669,POINT (104.235669 25.6898829999999),Fuyuan,Yunnan
2119,25.69245,104.1526,POINT (104.1526 25.69245),,Yunnan
1728,25.6589999999999,104.00476,POINT (104.00476 25.6589999999999),,Yunnan
936,25.66947,103.92858,POINT (103.92858 25.66947),Zhanyi,Yunnan
1729,25.65737,103.867949999999,POINT (103.867949999999 25.65737),Zhanyi,Yunnan
1212,25.52637,103.79231,POINT (103.79231 25.52637),,Yunnan
2383,25.4854699999999,103.6226,POINT (103.6226 25.4854699999999),,Yunnan
520,25.4847329999999,103.534335,POINT (103.534335 25.4847329999999),,Yunnan
1648,25.41185,103.36826,POINT (103.36826 25.41185),,Yunnan
843,25.30904,103.22392,POINT (103.22392 25.30904),,Yunnan
1249,25.23667,103.08609,POINT (103.08609 25.23667),,Yunnan
836,25.16634,102.99269,POINT (102.99269 25.16634),,Yunnan
2212,25.02025,102.84189,POINT (102.84189 25.02025),Kunming,Yunnan
1172,25.0183789999999,102.723519,POINT (102.723519 25.0183789999999),Kunming,Yunnan
1223,32.638285,105.879192,POINT (105.879192 32.638285),,Sichuan
651,32.78486,105.92316,POINT (105.92316 32.78486),,Sichuan
1650,32.91637,105.94387,POINT (105.94387 32.91637),,Shaanxi
894,33.0559299999999,106.08866,POINT (106.08866 33.0559299999999),,Shaanxi
2401,33.1227099999999,106.04611,POINT (106.04611 33.1227099999999),,Shaanxi
171,33.19214,106.05018,POINT (106.05018 33.19214),Lueyang County,Shaanxi
1357,33.3442399999999,106.08297,POINT (106.08297 33.3442399999999),Lueyang County,Shaanxi
1027,33.40549,106.05359,POINT (106.05359 33.40549),Lueyang County,Shaanxi
